apartment_name,latitude,longitude,place_id,zipcode,website,property_address,map_url,phone
Nottingham Forest East Apartments,33.7676033,-84.2530516,ChIJ3VvNauyp9YgRRXlKemiVy2M,30002,,"965 Nottingham Dr, Avondale Estates, GA 30002, USA",https://maps.google.com/?cid=7191005505987967301,(404) 501-0556
Colonial Homes Apartments,33.815173,-84.39656,ChIJ4eCNIKgF9YgReOZ6JpQafwc,30002,http://colonialhomesatlanta.com/,"177 N Colonial Homes Cir NW, Atlanta, GA 30309, USA",https://maps.google.com/?cid=540179703910819448,(404) 355-0580
Wesley Townsend Apartments,33.8136609,-84.3943458,ChIJKzR9b6gF9YgRjjr51xqT-Js,30002,http://www.wesleytownsend.com/,"200 Colonial Homes Dr NW, Atlanta, GA 30309, USA",https://maps.google.com/?cid=11238894613604940430,(678) 359-4463
The Jane Atlanta,33.8133327,-84.3950883,ChIJO9W-D6gF9YgR_3x7d31Ib_A,30002,http://www.thejaneatlanta.com/,"214 Colonial Homes Dr NW, Atlanta, GA 30309, USA",https://maps.google.com/?cid=17325145995230280959,(888) 218-0798
The Monroe,33.813823,-84.395875,ChIJ--OyBKgF9YgRCbPZqzRI6NQ,30002,http://www.themonroeatlanta.com/,"222 Colonial Homes Dr NW, Atlanta, GA 30309, USA",https://maps.google.com/?cid=15341591521696264969,(404) 228-2947
Willow Ridge Apartments,33.783778,-84.247377,ChIJpardO7ip9YgRt7TWKO3wDCk,30002,http://www.visitwillowridge.com/,"3548 Rockbridge Rd SW, Avondale Estates, GA 30002, USA",https://maps.google.com/?cid=2958003956658648247,(404) 254-5288
Oak Creek Apartments,33.7801149,-84.2481744,ChIJs0_Es7ip9YgR8dlA0ZjY-Rk,30002,http://www.oakcreekapts.org/,"280 Northern Ave, Avondale Estates, GA 30002, USA",https://maps.google.com/?cid=1871765271006468593,(404) 292-9724
CoHo,33.8152131,-84.3972627,ChIJWfvt5QcF9YgRvBaszKADxKI,30002,http://www.cohoatl.com/,"177 N Colonial Homes Cir NW, Atlanta, GA 30309, USA",https://maps.google.com/?cid=11728503318743094972,(855) 269-9069
Deerfield Village Apartments,34.0981576,-84.256204,ChIJ5Ro5bQ6e9YgRDUDIZB2WGg0,30004,http://www.liveatdeerfieldvillage.com/,"13085 Morris Rd, Alpharetta, GA 30004, USA",https://maps.google.com/?cid=944232124876603405,(770) 569-8600
The Lakes at Windward,34.0824037,-84.279557,ChIJhUbr3Y119YgREZg9CgP3iRY,30004,,"905 Lake Union Hill Way, Alpharetta, GA 30004, USA",https://maps.google.com/?cid=1624100733072545809,(770) 751-1411
Village of Devinshire Condos,34.0999838,-84.2648042,ChIJiQhCrwSe9YgRmI-9d1C2RHU,30004,,"3301 Deerfield Pkwy, Alpharetta, GA 30004, USA",https://maps.google.com/?cid=8450079257576443800,(770) 475-7633
Camden Deerfield Apartments,34.104254,-84.266008,ChIJj63rRwGe9YgRexIL7p0z-sc,30004,https://www.camdenliving.com/alpharetta-ga-apartments/camden-deerfield,"13200 Summit Blvd, Alpharetta, GA 30004, USA",https://maps.google.com/?cid=14409886711121908347,(770) 754-0700
Handy Trac,34.138053,-84.241764,ChIJmzETCLud9YgRpV7UrpYXw1U,30004,http://www.handytrac.com/,"510 Staghorn Ct, Alpharetta, GA 30004, USA",https://maps.google.com/?cid=6179809049628139173,(678) 990-2305
IMT Deerfield,34.100915,-84.256342,ChIJqWc9Lwye9YgRO0WKgqnFz4k,30004,http://www.imtresidential.com/imtDeerfield,"13125 Morris Rd, Alpharetta, GA 30004, USA",https://maps.google.com/?cid=9930373035205477691,(678) 367-0186
Northpark Estates,34.1027306,-84.2646901,ChIJT6MrBwSe9YgRpaSUcUUPMnk,30004,http://www.northparkwmp.com/,"13201 Deerfield Pkwy, Alpharetta, GA 30004, USA",https://maps.google.com/?cid=8733059418357540005,(770) 752-6300
Stoneleigh at Deerfield Apartments,34.101888,-84.2490685,ChIJxYHazXSe9YgR2kuCeV_y9NE, ,http://www.thestoneleighatdeerfieldapartments.com/,"1800 Deerfield Point, Alpharetta, GA 30004, USA",https://maps.google.com/?cid=15128983540118735834,(770) 569-2474
Gramercy Park | John Wieland Homes,34.0847537,-84.3226296,ChIJYcl2oEh09YgRMKVm6G6TRsA,30004,http://www.jwhomes.com/,"Gramercy Ln, Alpharetta, GA 30004, USA",https://maps.google.com/?cid=13854923408206636336,(770) 619-4325
Village of Devinshire Condominiums,34.1000075,-84.2648168,ChIJyUc3fgOe9YgRrt5ZRQZZHbs,30004,,"13100 Deerfield Pkwy, Milton, GA 30004, USA",https://maps.google.com/?cid=13483030742885326510,(770) 777-0505
Cypress Point Apartment Homes,34.0726575,-84.2558241,ChIJ02Ft5jCe9YgRJ5fE48NS7Oo,30005,http://www.apartmentalpharettaga.com/,"3500 North Point Pkwy, Alpharetta, GA 30005, USA",https://maps.google.com/?cid=16927996100672263975,(770) 783-3462
Waterstone At Big Creek Apartment Homes,34.108854,-84.226969,ChIJ1dczIqN19YgRN9ExB_Acbro,30005,http://www.waterstoneatbigcreek.com/,"50 Estuary Trail, Alpharetta, GA 30005, USA",https://maps.google.com/?cid=13433706555731202359,(855) 373-7992
Belmont At Park Bridge,34.0629946,-84.2440586,ChIJ624uq0ye9YgRygLOfX1hA5M,30005,http://www.belmont-apts.com/,"150 Rockberry Ln, Alpharetta, GA 30005, USA",https://maps.google.com/?cid=10593417940114997962,(770) 664-6502
Walton Bluegrass & The Legacy at Walton Bluegrass,34.107714,-84.216957,ChIJAexdECac9YgRBjcRbxHjtIA,30005,http://www.waltoncommunities.com/alpharetta-apartments/walton-bluegrass,"1625 Oak Farm Dr, Alpharetta, GA 30005, USA",https://maps.google.com/?cid=9274287196680042246,(770) 740-2669
The Venue Big Creek Apartments,34.1106361,-84.2274357,ChIJERvQNiuc9YgRXw-LfVK4AVM,30005,https://www.thevenuebigcreek.com/,"50 Venue Way, Alpharetta, GA 30005, USA",https://maps.google.com/?cid=5981264444557823839,(678) 339-0100
Alpharetta Corporate Apartments,34.104342,-84.265651,ChIJG_RqRwGe9YgRZNK7u15DvM0,30005,http://www.arcorporate.com/,"13000 Summit Blvd, Alpharetta, GA 30004, USA",https://maps.google.com/?cid=14824798147552465508,(770) 614-2121
Alara Park Bridge,34.060109,-84.235174,ChIJI1VThayf9YgREuaUiC5rqV8,30005,http://www.alaraparkbridgeapts.com/,"15000 Parkview Ln, Alpharetta, GA 30005, USA",https://maps.google.com/?cid=6893158552271382034,(770) 346-9600
Wood Bridge Apartments,34.065184,-84.239718,ChIJJQhWkU2e9YgRtqAUpuwEuTg,30005,http://www.woodbridgeaptsga.com/,"680 Park Bridge Pkwy, Alpharetta, GA 30005, USA",https://maps.google.com/?cid=4087303551260598454,(770) 663-7787
Collingwood Apartments,34.0493098,-84.2617914,ChIJl9FLeNuf9YgRSeJsO4m_94o,30005,http://www.collingwoodram.com/,"3400 Kimball Bridge Rd, Alpharetta, GA 30022, USA",https://maps.google.com/?cid=10013682892610003529,(770) 667-3211
Addison Place,34.0633668,-84.2088097,ChIJlRLzA-Ge9YgROEVJS7PLTKw,30005,http://www.addisonapts.com/,"5100 Abbotts Bridge Rd, Alpharetta, GA 30005, USA",https://maps.google.com/?cid=12415522243676292408,(678) 393-2722
Windward Place Apartments,34.0902715,-84.23777,ChIJn_u0sGWe9YgRM_CJq8G0Zf0,30005,http://www.windwardplaceapartments.com/,"3080 Market Pl, Alpharetta, GA 30005, USA",https://maps.google.com/?cid=18259199008143175731,(770) 751-0202
The Pointe at Preston Ridge,34.0691069,-84.2565654,ChIJP3rG1TOe9YgRXYbPy_mXHGs,30005,http://www.thepointeatprestonridge.com/,"950 Executive Dr, Alpharetta, GA 30005, USA",https://maps.google.com/?cid=7718210960528213597,(855) 653-4309
Nurock Managements Co,34.0727135,-84.2602993,ChIJR1f1zC-e9YgR7XFU_WKzr1E,30005,http://www.nurock.com/,"3460 Preston Ridge Rd, Alpharetta, GA 30005, USA",https://maps.google.com/?cid=5886120475734864365,(678) 297-3400
The Ascent at Windward,34.095567,-84.232877,ChIJv3TJgmSe9YgRvVViSuknj1k,30005,http://www.ascentwindward.com/,"18000 Masters Way, Alpharetta, GA 30005, USA",https://maps.google.com/?cid=6453420673974031805,(770) 752-4733
Parc Alpharetta Apartments,34.05056,-84.302784,ChIJ8c2PDBp19YgRdPy71TKzZ_A,30009,http://www.parcalpharetta.com/,"1000 Fanfare Way, Alpharetta, GA 30009, USA",https://maps.google.com/?cid=17323011522619505780,(866) 452-6020
Grande Oaks Apartments,34.0384521,-84.3359683,ChIJBWjd_rh09YgRxEnrNghGEMk,30009,http://www.bellapartmentliving.com/GA/Atlanta/Grande-Oaks,"100 Legacy Oaks Cir, Roswell, GA 30076, USA",https://maps.google.com/?cid=14488157002345957828,(770) 587-1008
Haven at Avalon,34.0715653,-84.2787301,ChIJC6O7koR19YgRiemIX9HRIUg,30009,http://www.havenatavalon.com/,"1213 Avalon Blvd, Alpharetta, GA 30009, USA",https://maps.google.com/?cid=5197666142143441289,(770) 285-8585
Manchester At Mansell Apartments,34.039754,-84.325905,ChIJdxVeq-md9YgRIWAFmhbb420,30009,http://www.manchesteratmansell.com/,"401 Huntington Dr, Roswell, GA 30076, USA",https://maps.google.com/?cid=7918413459967270945,(770) 587-5545
Aspen Pointe Apartments,34.0305227,-84.3204224,ChIJfbs8cNJ09YgRD7itvBWvRO4,30009,http://www.jamcoproperties.com/property/26/Aspen-Pointe-Apartments,"1300 Gran Crique Dr, Roswell, GA 30076, USA",https://maps.google.com/?cid=17169040187337848847,(888) 653-9489
Equity Residential,34.054129,-84.325337,ChIJH_Guou109YgRyFBvowRi5mc,30009,http://www.equityapartments.com/,"11251 Alpharetta Hwy, Roswell, GA 30076, USA",https://maps.google.com/?cid=7486779202611400904,(770) 442-3130
AMLI at Milton Park,34.0498018,-84.2799003,ChIJJSJfzGV19YgRrg7WKSIJDCQ,30009,http://www.amli.com/apartments/atlanta/North-Atlanta/Alpharetta/milton-park,"26000 Mill Creek Ave, Alpharetta, GA 30022, USA",https://maps.google.com/?cid=2597461127421365934,(678) 436-3840
Saddle Creek Apartments,34.080957,-84.3183861,ChIJl3NnY0509YgRgLyC9kYBcbg,30009,,"1465 Mid Broadwell Rd # 5000, Alpharetta, GA 30004, USA",https://maps.google.com/?cid=13290405379642145920,(770) 663-0054
Belcourt Apartments,34.0287232,-84.3138518,ChIJleYUZtV09YgRUWpcNn08mbM,30009,http://www.belcourtapts.com/,"2200 Belcourt Pkwy, Roswell, GA 30076, USA",https://maps.google.com/?cid=12941441512706435665,(866) 468-8552
Roswell Creek Apartments,34.0265777,-84.33304,ChIJLW0X3sl09YgRkgcpZGE0KzE,30009,http://www.myroswellcreek.com/,"1000 Holcomb Bridge Rd, Roswell, GA 30076, USA",https://maps.google.com/?cid=3542983124753909650,(770) 992-8000
The Crossings at Holcomb Bridge Apartments,34.0262879,-84.3288972,ChIJM0mLkst09YgREGddryPgnN0,30009,http://www.thecrossingsatholcombbridge.com/,"100 Creekside Way, Roswell, GA 30076, USA",https://maps.google.com/?cid=15968884822619547408,(855) 332-6890
Rosemont Apartments,34.058265,-84.326749,ChIJM6SapPF09YgR2rpKILS8re0,30009,http://rosemontapthomes.com/,"1900 Rosemont Pkwy, Roswell, GA 30076, USA",https://maps.google.com/?cid=17126552439781767898,(855) 646-0471
Oaks at Holcomb Bridge,34.026495,-84.3254381,ChIJMTHLfct09YgRfn6DcfSHP70,30009,http://www.oaksatholcombbridgeapts.com/,"700 Old Holcomb Bridge Rd, Roswell, GA 30076, USA",https://maps.google.com/?cid=13636767680647364222,(770) 284-1223
Riverwood Apartments,34.0236779,-84.333241,ChIJn-riP8109YgRxWtKzrpmvDE,30009,http://www.riverwood-apts.com/,"1045 Holcomb Bridge Rd, Roswell, GA 30076, USA",https://maps.google.com/?cid=3583852355991006149,(770) 998-1870
ALARA North Point Apartments,34.0445359,-84.2857385,ChIJozDXFmp19YgRLWYW9HVVxPU,30009,http://www.alaranorthpoint.com/,"900 Jameson Pass, Alpharetta, GA 30022, USA",https://maps.google.com/?cid=17709373599822276141,(770) 772-3031
Wood Creek at Roswell,34.0255056,-84.3269209,ChIJq-enVcp09YgRkwiM3M36MDQ,30009,http://www.gscapts.com/apartments/roswell_ga/zip_30076/gsc/4525/,"600 Old Holcomb Bridge Rd, Roswell, GA 30076, USA",https://maps.google.com/?cid=3760781450929768595,(888) 913-5956
Webb Bridge Crossing,34.0751264,-84.2785334,ChIJqy3ke4V19YgRJsLbTVG6xfE,30009,http://www.webbbridgecrossingapts.com/,"5000 Webb Bridge Ct, Alpharetta, GA 30009, USA",https://maps.google.com/?cid=17421535591913996838,(855) 814-7534
AMLI North Point,34.036344,-84.309469,ChIJu8rplSZ19YgRp_yii3fhMJo,30009,http://www.amli.com/apartments/atlanta/North-Atlanta/Alpharetta/north-point,"9000 Beaver Creek Rd, Alpharetta, GA 30022, USA",https://maps.google.com/?cid=11110628184283085991,(678) 971-2316
The Lex- Alpharetta,34.078576,-84.315252,ChIJuS4zmk109YgR3kB_eZ-ym2c,30009,http://www.thelexapts.com/,"1000 Lexington Farm Dr, Alpharetta, GA 30004, USA",https://maps.google.com/?cid=7465757205304656094,(678) 554-4578
Gables Residential,34.0200503,-84.331501,ChIJYZAGCDUL9YgRejrgxEBW_SA,30009,http://gables.com/,"100 Hemingway Ln, Roswell, GA 30075, USA",https://maps.google.com/?cid=2377151014502414970,(770) 640-1686
Roswell Village Apartments,34.0200503,-84.331501,ChIJYZAGCDUL9YgRJ2IyA4Yh8OA,30009,http://www.liveatroswellvillage.com/,"100 Hemingway Ln, Roswell, GA 30075, USA",https://maps.google.com/?cid=16208491918369382951,(770) 518-8300
AMLI at Northwinds,34.0633594,-84.285294,ChIJzWCCU5519YgR2cPQTK56te0,30009,http://www.amli.com/apartments/atlanta/North-Atlanta/Alpharetta/northwinds,"32000 Gardner Dr, Alpharetta, GA 30009, USA",https://maps.google.com/?cid=17128731646805197785,(888) 479-2936
Navarro Apartments,33.7962297,-84.2437532,ChIJ245QrLSp9YgR4weyIAYOZ64,30021,http://www.navarroapts.com/,"3525 Indian Creek Way, Clarkston, GA 30021, USA",https://maps.google.com/?cid=12567028704681789411,(404) 296-4808
Springdale Glen Apartments,33.822374,-84.2324131,ChIJ5-AHvGCo9YgRV8ObJqm_e60,30021,http://www.springdaleglen.com/,"3800 Brockett Trail, Clarkston, GA 30021, USA",https://maps.google.com/?cid=12500795923915064151,(678) 554-4577
English Oaks,33.8153142,-84.2346524,ChIJafeYIVyo9YgRozwmlML3ZE4,30021,http://rjamesproperties.com/properties/english-oaks/,"4133 Church St, Clarkston, GA 30021, USA",https://maps.google.com/?cid=5648912247710694563,(404) 299-2234
Avalon on Montreal- Clarkston,33.8152503,-84.2454193,ChIJCRcfHkGo9YgRjUQ7FrXZiY8,30021,http://www.avalononmontreal.com/,"1086 Montreal Rd, Clarkston, GA 30021, USA",https://maps.google.com/?cid=10343037391018345613,(404) 296-8516
1500 Oak Apartments,33.822298,-84.231156,ChIJcTTgrGOo9YgR31qyG8hBk7M,30021,http://www.1500oak.com/,"1500 Post Oak Dr, Clarkston, GA 30021, USA",https://maps.google.com/?cid=12939758482079505119,(678) 554-4542
Silver Oak Apartments,33.820386,-84.2307692,ChIJFekbDIqo9YgRvu8uChNGn-A,30021,http://www.silveroakgeorgia.com/,"1281 Brockett Rd, Clarkston, GA 30021, USA",https://maps.google.com/?cid=16185732633382023102,(770) 284-3148
The Lakes at Indian Creek,33.7984676,-84.2333149,ChIJG3D-QVOo9YgRJcXHXTfFmMc,30021,http://www.rentcafe.com/apartments/ga/clarkston/lakes-at-indian-creek-apartments/index.aspx,"751 N Indian Creek Dr, Clarkston, GA 30021, USA",https://maps.google.com/?cid=14382462251594925349,(404) 296-6442
Kristopher Woods Apartments,33.7996343,-84.2425478,ChIJGbRm-Eyo9YgRyQcdKJa5f4A,30021,,"792 Jolly Ave S, Clarkston, GA 30021, USA",https://maps.google.com/?cid=9259323413466253257,(404) 296-2371
Clarkston Oaks Apartments,33.798707,-84.247186,ChIJh0vgdEuo9YgR7BFDw5-drwY,30021,http://rjamesproperties.com/properties/clarkston-oaks/,"767 Northern Ave, Clarkston, GA 30021, USA",https://maps.google.com/?cid=481776994653245932,(404) 294-1488
Woodside Village Apartments,33.7980731,-84.230504,ChIJk3pfBFWo9YgR8CjpnqL0Jns,30021,http://www.woodsidevillage-apts.com/,"3954 Memorial College Ave, Clarkston, GA 30021, USA",https://maps.google.com/?cid=8874049095068100848,(404) 292-8596
Indian Valley,33.7968233,-84.2444089,ChIJK5uMUkuo9YgRIGWro3TJh78,30021,http://adaraliving.com/,"3536 Indian Creek Way, Clarkston, GA 30021, USA",https://maps.google.com/?cid=13801221085899482400,(404) 296-9330
Reserve At Twin Oaks,33.8152211,-84.2482544,ChIJLZv5mkCo9YgRY7EvmFPoS8I,30021,http://www.reserveattwinoaksapts.com/,"1108 Montreal Rd E, Clarkston, GA 30021, USA",https://maps.google.com/?cid=14000539312344510819,(404) 436-2550
Clarkston Station Apartments,33.8151258,-84.242679,ChIJn48fS0Ko9YgRHy01615SIbI,30021,http://www.clarkstonstationapts.com/,"3629 Montreal Creek Cir, Clarkston, GA 30021, USA",https://maps.google.com/?cid=12835630980609158431,(404) 508-3118
Highland Village Apartments,33.8044098,-84.2491969,ChIJQWHiKjao9YgR5xBigaQlE0c,30021,,"3890 E Ponce de Leon Ave, Clarkston, GA 30021, USA",https://maps.google.com/?cid=5121478589725937895,(404) 448-1906
Birch Run Estates,33.8191717,-84.2378693,ChIJQwol72eo9YgRtFX2_nxi7Ho,30021,http://www.birchrunapts.com/,"1204 Brockett Rd, Clarkston, GA 30021, USA",https://maps.google.com/?cid=8857562856123946420,(404) 299-3565
Tuscany Village Apartments,33.7934296,-84.2469294,ChIJrRraVLSp9YgRHbgd9w9AcnE,30021,http://www.tuscanyvillageapartments.net/,"600 Northern Ave, Clarkston, GA 30021, USA",https://maps.google.com/?cid=8174666710945478685,(404) 585-4424
Sage Pointe Apartments,33.8201655,-84.2272536,ChIJRZ6AvIqo9YgRRuaMWUxbeuc,30021,,"4650 E Ponce de Leon Ave, Clarkston, GA 30021, USA",https://maps.google.com/?cid=16679744553398101574,(770) 558-6140
Wildcreek Apartments,33.8184018,-84.2376385,ChIJT6uHsEKo9YgRGBAibzsZ8RA,30021,http://www.wildcreekapartmenthomes.com/,"100 Wild Cir, Clarkston, GA 30021, USA",https://maps.google.com/?cid=1220784717052383256,(404) 857-2288
Carriage Oaks Apartments,33.8152484,-84.2362432,ChIJYf0f_1yo9YgRNLYDnxPNTzg,30021,http://www.nelkinrealestate.com/carriageoaks1-2.php,"4366 E Ponce de Leon Ave, Clarkston, GA 30021, USA",https://maps.google.com/?cid=4057687273439999540,(404) 508-9433
Clarkston Townhomes,33.8100856,-84.2451179,ChIJYy3nY0ao9YgRVUwmYft5JdM,30021,http://rjamesproperties.com/properties/clarkston-townhomes/,"3519 W Hill St, Clarkston, GA 30021, USA",https://maps.google.com/?cid=15214701036714740821,(404) 296-4125
St Andrews Apartments,34.027611,-84.250439,ChIJ6ZTOM42f9YgRsb1LLugBOdI,30022,http://www.standrewsapartmenthomes.com/,"10055 Jones Bridge Rd, Johns Creek, GA 30022, USA",https://maps.google.com/?cid=15148140918358130097,(770) 663-7566
Nesbit Palisades,33.986239,-84.271561,ChIJ9wg-Lp0K9YgR3UjyvXkv2Zc,30022,http://www.liveatnesbitpalisades.com/,"8520 S Holcomb Bridge Way, Alpharetta, GA 30022, USA",https://maps.google.com/?cid=10941828969597651165,(855) 349-3580
Champions Green Apartments,34.001014,-84.280404,ChIJaSd81aIK9YgRUPKCIA3c-Z4,30022,http://venterraliving.com/championsgreen/rent_pricing_availability?id=CHGGGM006,"1001 Champions Green Pkwy, Alpharetta, GA 30022, USA",https://maps.google.com/?cid=11455429076131705424,(678) 534-7168
Seven Pines Apartments & Townhomes,33.9929512,-84.2772934,ChIJDQvdMZoK9YgRJR2_0n-ndPo,30022,http://www.sevenpinesapts.com/,"2845 Holcomb Bridge Rd, Alpharetta, GA 30022, USA",https://maps.google.com/?cid=18047233774218845477,(770) 992-4978
Holcomb's Pond Apartments,33.993997,-84.280531,ChIJl5kh4JkK9YgRIJqvMzE8tdA,30022,http://www.holcombspondapartments.com/,"2745 Holcomb Bridge Rd, Alpharetta, GA 30022, USA",https://maps.google.com/?cid=15038992712691849760,(770) 574-6850
Ashley Forest Apartments,34.0044152,-84.2785736,ChIJM-NpkKQK9YgRitxPRigE7J8,30022,http://www.ashleyforestapts.com/,"9230 Nesbit Ferry Rd, Alpharetta, GA 30022, USA",https://maps.google.com/?cid=11523590117559098506,(770) 642-4897
Nesbit Ferry Crossing Apartments,34.0018818,-84.2781524,ChIJq4rR_aIK9YgR7ZOonDyX1fE,30022,http://www.bellapartmentliving.com/ga/alpharetta/nesbit-ferry-crossing/,"100 Saratoga Dr, Alpharetta, GA 30022, USA",https://maps.google.com/?cid=17426000619762127853,(678) 585-0094
North Haven at Johns Creek,34.0512413,-84.2260577,ChIJF3h_2Aef9YgRjdBZ-3VdMRI,30023,http://www.northhavenatjohnscreek.com/,"11201 State Bridge Rd, Johns Creek, GA 30022, USA",https://maps.google.com/?cid=1310931727851049101,(678) 366-9865
Duck Pond at Johns Creek,34.0432641,-84.2215128,ChIJfcG7ewyf9YgRWLlGv8dgGhQ,30023,http://www.duckpondatjohnscreek.com/,"10840 State Bridge Rd, Johns Creek, GA 30022, USA",https://maps.google.com/?cid=1448576641176877400,(770) 619-9099
ARIUM Johns Creek Apartments,34.017375,-84.195845,ChIJj8l0hVef9YgRFtYLUehRjls,30023,http://ariumjohnscreek.com/luxury-apartments/johns-creek/ga,"9700 Medlock Crossing Pkwy, Alpharetta, GA 30022, USA",https://maps.google.com/?cid=6597300562378348054,(770) 824-3063
The Reserve at John's Creek Walk,34.0504051,-84.1777876,ChIJsU6yStCY9YgRglIiWB7wqFI,30023,http://reserveatjohnscreek.com/,"11055 Bell Rd, Duluth, GA 30097, USA",https://maps.google.com/?cid=5956274520315810434,(678) 475-3550
Avery Glen Apartments,33.7707991,-84.290784,ChIJ90P-WT8H9YgRsybiTyvFDbE,30030,http://www.rampartnersllc.com/,"339 E College Ave, Decatur, GA 30030, USA",https://maps.google.com/?cid=12758070109224969907,(404) 687-8100
Allen Wilson Apartments,33.7723618,-84.2990036,ChIJaSVEYDwH9YgRDTCZj0SY0Es,30030,,"1450 Commerce Dr, Decatur, GA 30030, USA",https://maps.google.com/?cid=5463033768234790925,(404) 687-8358
Atlantic Star Ice House Lofts,33.7731364,-84.2888365,ChIJaz-L8EAH9YgRKa93kzN4DEA,30030,http://bradenfellman.com/apartments/icehouse/,"105 Sycamore Pl, Decatur, GA 30030, USA",https://maps.google.com/?cid=4615195881060675369,(404) 377-5251
Avondale Station Apartments,33.774829,-84.2754673,ChIJbYcgZl4H9YgRp1yW-gPbt88,30030,http://www.avondalestationapts.com/,"703 Twin Oaks Dr, Decatur, GA 30030, USA",https://maps.google.com/?cid=14967672696724675751,(404) 373-1643
Spring Pointe Apartments,33.7570533,-84.3056075,ChIJC7SajiwH9YgR28YZid8i96U,30030,http://www.springpointeapartments.org/,"1301 Oakview Rd, Decatur, GA 30030, USA",https://maps.google.com/?cid=11959065678978860763,(404) 687-9385
Derrydown Quads & Houses,33.771882,-84.280462,ChIJex7Z0lwH9YgRIOb4yKt-6mg,30030,http://rjamesproperties.com/properties/derrydown-quads-houses/,"784 Derrydown Way, Decatur, GA 30030, USA",https://maps.google.com/?cid=7559994200771061280,(404) 377-7087
North Decatur Garden Apartments,33.7884223,-84.2892493,ChIJG8CqkHIH9YgRQVNiKQP_6Bg,30030,http://www.northdecaturgardens.com/,"1400 Church St, Decatur, GA 30030, USA",https://maps.google.com/?cid=1794964840551437121,(404) 377-7353
Alexan 1133 Apartments,33.7774227,-84.2980768,ChIJIckZFRYH9YgRag7I20JEdB4,30030,http://alexan1133.com/,"1133 Commerce Dr, Decatur, GA 30030, USA",https://maps.google.com/?cid=2194453972382125674,(404) 371-6999
Philips Tower,33.7727457,-84.2943282,ChIJKWUK5T4H9YgRT4lBNtHWsmI,30030,http://www.philipstower.org/,"218 E Trinity Pl # A, Decatur, GA 30030, USA",https://maps.google.com/?cid=7111982955618208079,(404) 373-4361
Amberidge Apartments,33.786709,-84.300568,ChIJL3ZaEhAH9YgRDqzD_R30RcU,30030,http://www.amberidge.info/,"1031 Scott Blvd, Decatur, GA 30030, USA",https://maps.google.com/?cid=14215036208513526798,(404) 797-3815
Adair Oaks Apartments,33.7697075,-84.3073154,ChIJM7MKJiQH9YgRJsNBMBAdXJ4,30030,http://www.visionpropertiesinc.com/apartments.htm#AdairAnchor,"212 Adair St A3, Decatur, GA 30030, USA",https://maps.google.com/?cid=11411027511216292646,(404) 373-4368
Jackson Square Apartments,33.789869,-84.275128,ChIJPyqrZHwH9YgRMXW7VWl0aL0,30030,http://www.liveatjacksonsquare.com/,"455 Dekalb Industrial Way, Decatur, GA 30030, USA",https://maps.google.com/?cid=13648286666505024817,(404) 294-0400
Park Trace Apartments,33.7717699,-84.3026096,ChIJqcnaWiMH9YgRF8KU9N5rTsM,30030,,"700 Atlanta Ave, Decatur, GA 30030, USA",https://maps.google.com/?cid=14073304490909680151,(404) 371-0887
The Place on Ponce Apartments,33.7760731,-84.3000549,ChIJU7sSQT0H9YgRX1ZdbHHEr2o,30030,http://www.theplaceonponce.com/,"220 Ponce De Leon Pl, Decatur, GA 30030, USA",https://maps.google.com/?cid=7687579080373130847,(404) 496-6075
Decatur Crossing,33.780052,-84.2775904,ChIJUy3mYWYH9YgRhCY91RbAGUU,30030,http://www.decaturcrossingapartments.com/,"100 Grayson Pl, Decatur, GA 30030, USA",https://maps.google.com/?cid=4979222067334162052,(404) 298-1991
Pines on Scott Apartments,33.785657,-84.302538,ChIJx0uVjRoH9YgRDT2q_bhZIQM,30030,http://rjamesproperties.com/properties/the-pines-on-scott/,"927 Scott Blvd, Decatur, GA 30030, USA",https://maps.google.com/?cid=225560107409882381,(404) 377-8188
The Clarion Apartments,33.7849372,-84.2776545,ChIJx2ue4mQH9YgRoVRZKa48-Tw,30030,http://www.theclarionapts.com/,"10 Rimington Ln, Decatur, GA 30030, USA",https://maps.google.com/?cid=4393609630192325793,(404) 508-9360
Decatur Christian Towers,33.7897963,-84.2883954,ChIJy4_bVXIH9YgRgUhCVS2N2PM,30030,http://www.christiantowers.com/,"1438 Church St, Decatur, GA 30030, USA",https://maps.google.com/?cid=17570949172029442177,(404) 377-5507
Candler East Apartments,33.7192,-84.276354,ChIJ4yH9sIQA9YgRjYxitSZ5DTg,30032,http://www.candlereast.com/,"2425 Candler Rd, Decatur, GA 30032, USA",https://maps.google.com/?cid=4039017647980055693,(404) 288-2365
Kenridge Apartment Homes,33.7658993,-84.236791,ChIJ6-VLQ5qp9YgRqLd_dXWUUoU,30032,http://harvest-properties.com/property/kenridge-apartments/,"3893 Kensington Rd, Decatur, GA 30032, USA",https://maps.google.com/?cid=9606904187338078120,(404) 296-5096
Windrush Apartments,33.768112,-84.237286,ChIJ6YhRHpqp9YgRZaheguNZqvc,30032,http://www.windrushaptsdecatur.com/,"3841 Kensington Rd, Decatur, GA 30032, USA",https://maps.google.com/?cid=17846175307088701541,(404) 296-1613
Spring Valley Apartments- Atlanta,33.7183465,-84.2721496,ChIJ9W_q5IIA9YgRGXl7SzmYAKo,30032,http://www.springvalleyatlanta.com/,"2823 Misty Waters Dr, Decatur, GA 30032, USA",https://maps.google.com/?cid=12249958358294690073,(404) 288-6620
Midway Manor Apartments,33.763895,-84.253521,ChIJawGa8O2p9YgRudHk1H_URzY,30032,,"3626 Midway Rd, Decatur, GA 30032, USA",https://maps.google.com/?cid=3911328446892265913,(404) 284-9605
Redan Cove Apartments,33.760177,-84.236952,ChIJaX1HTISp9YgRkZn33Z2aGvI,30032,http://rjamesproperties.com/properties/redan-cove/,"3737 Redan Rd, Decatur, GA 30032, USA",https://maps.google.com/?cid=17445426109397571985,(404) 289-7618
Laurel Mill Apartments,33.7108271,-84.2910798,ChIJc6fHSvUA9YgRLFGdwM8T2NM,30032,,"2566 Whites Mill Rd, Decatur, GA 30034, USA",https://maps.google.com/?cid=15264972719982989612,(404) 241-6290
Royal Manor,33.7627022,-84.2587369,ChIJF1snEfCp9YgRn12OmCRDMMo,30032,,"3900 Memorial Dr, Decatur, GA 30032, USA",https://maps.google.com/?cid=14569218619000905119,(404) 289-8307
Wynhollow Apartments,33.7342145,-84.2325478,ChIJF8I7-jOq9YgRjgmYYcYTfBE,30032,https://www.facebook.com/wynhollow?fref=nf,"3859 Austin Cir, Decatur, GA 30032, USA",https://maps.google.com/?cid=1259903738518702478,(404) 600-8720
Waterford Manor Apartments,33.7551588,-84.2389594,ChIJGRg2kYip9YgRtwLIs7zxvAU,30032,http://www.waterfordmanor.net/,"4015 Covington Hwy, Decatur, GA 30032, USA",https://maps.google.com/?cid=413471058583618231,(404) 288-1743
Valley Bridge Apartments,33.736767,-84.256948,ChIJiU_cnRGq9YgRw-RRf4jLT2Y,30032,,"3937 Glenwood Rd, Decatur, GA 30032, USA",https://maps.google.com/?cid=7372334902140855491,(404) 284-8390
Maple Walk Apartments,33.7607806,-84.2555763,ChIJK44PoPGp9YgRaR05igb0h04,30032,,"1160 Maple Walk Cir, Decatur, GA 30032, USA",https://maps.google.com/?cid=5658759765740297577,(404) 566-9211
Columbia Candler Forest,33.727087,-84.281501,ChIJmVkaQpcA9YgRhlIlB8xPvSQ,30032,http://www.columbiares.com/property/candler-forrest-apartments,"2145 Candler Rd, Decatur, GA 30032, USA",https://maps.google.com/?cid=2647359893675528838,(678) 904-3174
The Woodridge Apartment Homes,33.711728,-84.2921347,ChIJoQRIL_UA9YgR-wDhAi5USQo,30032,http://www.thewoodridge.com/,"2567 Whites Mill Rd, Decatur, GA 30034, USA",https://maps.google.com/?cid=741216170272686331,(404) 212-9721
Whispering Pines Apartments,33.717914,-84.276599,ChIJPVq7WIQA9YgRwzGJ4qWvKb4,30032,http://www.whispering-pines-apartments.com/,"2784 Kelly Lake Rd, Decatur, GA 30032, USA",https://maps.google.com/?cid=13702676468256551363,(404) 244-6352
Peachcrest Gardens,33.739046,-84.2504354,ChIJxUEYNBaq9YgRMfl-zEnGAjQ,30032,,"4100 Glenwood Rd, Decatur, GA 30032, USA",https://maps.google.com/?cid=3747775860191459633,(404) 288-4074
Rainbow Forest Apartments,33.7069824,-84.2642299,ChIJyfqen4Cq9YgRKKTtlgKVQAk,30032,http://www.rainbowforestapts.com/,"3100 Rainbow Forest Cir, Decatur, GA 30034, USA",https://maps.google.com/?cid=666696583205463080,(404) 243-0646
Columbia Place Apartments,33.739351,-84.254639,ChIJyQ_tzhCq9YgR1iwV9g0hC8s,30032,,"1776 S Columbia Pl, Decatur, GA 30032, USA",https://maps.google.com/?cid=14630824158290062550,(404) 288-9461
Oak Tree Villas,33.7689291,-84.2471329,ChIJz0PsnJSp9YgRmKa6_4kxzug,30032,http://www.oaktreevillas.com/,"3465 Kensington Rd, Decatur, GA 30032, USA",https://maps.google.com/?cid=16775400130772379288,(404) 692-7469
The Park on Candler Apartment Homes,33.7140044,-84.2777238,ChIJzQKffYYA9YgRM4WaW93hsTw,30032,http://www.theparkoncandlerapartments.com/,"2571 Candler Rd, Decatur, GA 30032, USA",https://maps.google.com/?cid=4373525053994337587,(404) 243-1100
Park Summit Apartments,33.793542,-84.2796227,ChIJ1w6V2nkH9YgRfoyeut2NnnM,30033,http://www.parksummitapts.com/,"2778 N Decatur Rd, Decatur, GA 30033, USA",https://maps.google.com/?cid=8331252344140237950,(404) 508-1117
Williamsburg,33.80847,-84.3028999,ChIJ7Zcclq8H9YgRXBNEXSD5W4k,30033,http://www.rentatwilliamsburg.com/,"1060 N Jamestown Rd, Decatur, GA 30033, USA",https://maps.google.com/?cid=9897778523475809116,(888) 884-8728
Five Oaks Apartments,33.819999,-84.249528,ChIJ89lsRhWo9YgR1WXZIWMvsvo,30033,http://fiveoaksapts.com/,"1200 Montreal Rd E, Tucker, GA 30084, USA",https://maps.google.com/?cid=18064553158152644053,(770) 938-2055
Bch Grove Apartments,33.8091632,-84.2661753,ChIJbbApdyio9YgRDbu_pwV5Ooc,30033,,"3073 Cedar Creek Pkwy, Decatur, GA 30033, USA",https://maps.google.com/?cid=9744233808965647117,(404) 292-2511
Woodland Hills Apartment Homes,33.809046,-84.292149,ChIJD_T9DpgH9YgRdHDgyLLY9zM,30033,http://www.liveatwoodlandhills.com/,"3471 N Druid Hills Rd, Decatur, GA 30033, USA",https://maps.google.com/?cid=3744699877567787124,(404) 634-9462
Shamrock Place Apartments,33.8151904,-84.2709403,ChIJf2yMEIoH9YgR7r85CHaUjpY,30033,http://www.nelkinrealestate.com/shamrockplace.php,"2312 Lawrenceville Hwy, Decatur, GA 30033, USA",https://maps.google.com/?cid=10848771787047157742,(404) 636-7119
The Orleans of Decatur Apartments,33.795909,-84.27964,ChIJn-ghT3gH9YgRQKq0GL07JH4,30033,http://www.orleanswmp.com/,"2676 Reserve Ct, Decatur, GA 30033, USA",https://maps.google.com/?cid=9089455631289854528,(404) 292-0224
Gateway at Cedar Brook,33.7963092,-84.2653249,ChIJnZZRu9Sp9YgRItEbYRwj39Q,30033,http://www.mygatewayapts.com/,"3117 Cedar Brook Dr, Decatur, GA 30033, USA",https://maps.google.com/?cid=15339017460642468130,(404) 292-1931
Clairmont Crest Beautyshop,33.808519,-84.3088938,ChIJPwNYuq0H9YgRb8pixsQ3RdE,30033,,"1861 Clairmont Rd, Decatur, GA 30033, USA",https://maps.google.com/?cid=15079520245601454703,(404) 329-1857
Valley Place Apartments,33.8074254,-84.2659466,ChIJrXBoviio9YgRE347JP3qHF4,30033,http://www.krcvista.com/,"3324 Valley Brook Pl, Decatur, GA 30033, USA",https://maps.google.com/?cid=6781553511868628499,(404) 296-0548
Carriage Place Apartments,33.7980857,-84.2772382,ChIJt4E28ngH9YgRJ2LeI5b8fYg,30033,http://www.carriageplaceliving.com/,"401 Carriage Pl Ct, Decatur, GA 30033, USA",https://maps.google.com/?cid=9835294883024101927,
Paces Park Apartments,33.7951962,-84.2765141,ChIJV-GI4ngH9YgR7zedQikuyLg,30033,http://www.pacesparkwmp.com/,"100 Paces Park Dr, Decatur, GA 30033, USA",https://maps.google.com/?cid=13314943053067007983,(404) 294-1616
Misty Creek Apartments,33.8106943,-84.2602535,ChIJXzqoLCWo9YgRv4f5If_oT-E,30033,http://rjamesproperties.com/mistycreek,"3145 Misty Creek Dr, Decatur, GA 30033, USA",https://maps.google.com/?cid=16235451364178233279,(404) 299-3015
Valley Brook Crossing Apartments,33.8009825,-84.2641271,ChIJyzU0cCyo9YgRTqcvkkABtW4,30033,,"777 Valleybrook Xing, Decatur, GA 30033, USA",https://maps.google.com/?cid=7977283691798832974,(404) 299-9305
Creekside Vista,33.7013574,-84.2617643,ChIJ49vEyoWq9YgRGSkkj02BzgY,30034,http://www.creeksidevistaapartments.com/,"3100 Lumby Dr, Decatur, GA 30034, USA",https://maps.google.com/?cid=490471579543939353,(404) 212-9669
Pine Village East,33.7027763,-84.2712926,ChIJ74fuqHgA9YgR2ACJfAsur4Q,30034,http://www.pinevillageeast.com/,"2889 Panthersville Rd, Decatur, GA 30034, USA",https://maps.google.com/?cid=9560911160799723736,(404) 243-3828
Parkway Grand Apartment Homes,33.6778704,-84.2332738,ChIJa6STnSMH9YgRwgOpjJSQPUU,30034,http://www.parkwaygrand.com/,"100 Woodberry Pl, Decatur, GA 30034, USA",https://maps.google.com/?cid=4989302929885823938,(770) 987-8830
Edgewater Vista Apartments,33.7003645,-84.2610045,ChIJadgm7oWq9YgRABV6tBaZcyE,30034,http://www.ewvapts.com/,"3110 Lumby Dr, Decatur, GA 30034, USA",https://maps.google.com/?cid=2410438548369577216,(404) 241-3947
Orchard Walk Apartments,33.6969603,-84.2617499,ChIJFa7Uypqq9YgRmukoCJ-KNRo,30034,http://orchardwalkapts.com/,"3800 Flat Shoals Pkwy, Decatur, GA 30034, USA",https://maps.google.com/?cid=1888568034393123226,(404) 243-8585
Thornberry Apartments,33.6943794,-84.2937524,ChIJGbQZOUIA9YgRs9dfSJer0Qk,30034,,"2435 Aylesbury Loop, Decatur, GA 30034, USA",https://maps.google.com/?cid=707535282716530611,(404) 212-0310
Snapwoods Apartments,33.7094006,-84.204467,ChIJHeKa456r9YgR1wwtRMy__HI,30034,http://www.cflane.com/id/757/snapwoods-apartments-decatur-ga-30035,"4521 Snapfinger Woods Dr, Decatur, GA 30035, USA",https://maps.google.com/?cid=8285708298492906711,(770) 987-2775
Aspen Woods,33.702767,-84.2763229,ChIJi3vE83sA9YgRxNR08_wln74,30034,http://aspenwoods.smpmgt.com/,"3379 Flat Shoals Rd, Decatur, GA 30034, USA",https://maps.google.com/?cid=13735739156849808580,(404) 241-2472
Forest At Columbia,33.7148179,-84.2544293,ChIJjeoI8Waq9YgR-Q4Mr3jWaiE,30034,,"2505 Columbia Dr, Decatur, GA 30034, USA",https://maps.google.com/?cid=2407972764604174073,(404) 289-9661
Serenade Apartments,33.696677,-84.2671249,ChIJKboj15yq9YgRgH03djynPxQ,30034,http://www.serenadeapartments.com/,"3859 Flat Shoals Pkwy, Decatur, GA 30034, USA",https://maps.google.com/?cid=1459068682414554496,(404) 243-1440
Wellington Court,33.6980299,-84.2621715,ChIJM-QEOYWq9YgR9kTgczjh6dk,30034,,"3760 Flat Shoals Pkwy, Decatur, GA 30034, USA",https://maps.google.com/?cid=15702329208382440694,(404) 241-0178
Crystal Point Apartments,33.6934459,-84.2562854,ChIJp-v_dJGq9YgRm9umWDk5D7k,30034,,"Peppertree Cir, Decatur, GA 30034, USA",https://maps.google.com/?cid=13334939940130577307,(404) 243-9095
The Village at Wesley Chapel Apartments,33.7089282,-84.2118896,ChIJpzUb_aar9YgRfDmreg5swfY,30034,http://www.jamcoproperties.com/contact_leasing/22/The-Village-at-Wesley-Chapel-Apartments,"4336 Pleasant Point Dr, Decatur, GA 30034, USA",https://maps.google.com/?cid=17780611613278812540,(888) 656-0332
Highland Club,33.7119022,-84.2916529,ChIJxejRMPQA9YgRA73Qq7psSf0,30034,,"2567 Whites Mill Rd, Decatur, GA 30034, USA",https://maps.google.com/?cid=18251238513897946371,(404) 212-9723
Creekside Forrest,33.7135163,-84.2646119,ChIJYTruAXyq9YgR44JjT0ICAkU,30034,,"3000 Ember Dr, Decatur, GA 30034, USA",https://maps.google.com/?cid=4972539422393467619,(404) 244-6114
Retreat At Madison Place LLC,33.7501261,-84.2296416,ChIJ4wfekyqq9YgRQ95J9dnENVU,30035,,"3907 Redwing Cir, Decatur, GA 30035, USA",https://maps.google.com/?cid=6140030107391745603,(404) 289-8393
Villas of Friendly Heights,33.70957,-84.202256,ChIJAQAAAJSr9YgRAWUFouGmORU,30035,,"1300 Friendly Heights Blvd, Decatur, GA 30035, USA",https://maps.google.com/?cid=1529437036485108993,(770) 322-8700
Redan Village,33.7608109,-84.233249,ChIJB7Zt3ISp9YgR6QsN_iMncuM,30035,http://rjamesproperties.com/properties/redan-village-apartments/,"3829 Redan Rd, Decatur, GA 30032, USA",https://maps.google.com/?cid=16389205029494262761,(404) 289-5638
Hidden Woods,33.7340213,-84.2267915,ChIJeaBOX8ur9YgRt063AJRafvQ,30035,,"4655 Glenwood Rd, Decatur, GA 30035, USA",https://maps.google.com/?cid=17617618384033631927,(678) 927-9487
Covington Glen Apartments,33.726811,-84.1793847,ChIJF8fVOHOs9YgRo_NlQrsUHNQ,30035,http://www.southwoodrealty.com/covingtonglen.htm,"5816 Covington Hwy, Decatur, GA 30035, USA",https://maps.google.com/?cid=15284114029894038435,(770) 593-4958
Colony Ridge Apartments,33.7375628,-84.2420568,ChIJgWUsoTuq9YgRXyvazKBa3Mw,30035,,"4373 Glenwood Rd, Decatur, GA 30032, USA",https://maps.google.com/?cid=14761773325291760479,(404) 549-6581
Valleyfield Apartments,33.729653,-84.193534,ChIJIRQgAvOr9YgR1ct0V7BCAEU,30035,http://rjamesproperties.com/properties/valley-field-apartments/,"5421 Covington Hwy, Decatur, GA 30035, USA",https://maps.google.com/?cid=4972047313765977045,(770) 981-9369
East Perimeter Pointe Apartments,33.711655,-84.187954,ChIJj7qsJoer9YgR0CBB1g0txeg,30035,http://www.eastperimeterpointe.com/,"4946 Snapfinger Woods Dr, Decatur, GA 30035, USA",https://maps.google.com/?cid=16772861924663697616,(844) 333-3661
The Cedars of Chalet,33.7104435,-84.1896897,ChIJK4SiyoOr9YgRMMjLVN5uRq0,30035,,"2 Shell Bark Rd, Decatur, GA 30035, USA",https://maps.google.com/?cid=12485788918115715120,(770) 987-9495
Chapel Run Apartments,33.7116492,-84.2058607,ChIJMevdr5ir9YgRPUGFTgS1E8Q,30035,http://www.chapelrunapartments.com/,"4522 Snapfinger Woods Dr, Decatur, GA 30035, USA",https://maps.google.com/?cid=14128835486093230397,(770) 808-5777
Wesley Club Apartments,33.7098894,-84.2198395,ChIJNy6_4air9YgR5IM9wH-L0wY,30035,http://www.wesleyclubapts.com/,"4103 Wesley Club Dr, Decatur, GA 30034, USA",https://maps.google.com/?cid=491890165115880420,(404) 284-4660
Crestview Apartment,33.7154332,-84.1911899,ChIJr9j5_IWr9YgRFCiOCzIopEg,30035,,"6907 Treecrest Pkwy, Decatur, GA 30035, USA",https://maps.google.com/?cid=5234352862318700564,(770) 987-7576
Heritage Reserve Apartments,33.7098684,-84.190933,ChIJsW-etYar9YgR3JQEEeoA1S4,30035,http://www.heritagereserveapts.com/,"10 Creste Dr, Decatur, GA 30035, USA",https://maps.google.com/?cid=3374604501091914972,(770) 593-0492
Friendly Hills Apartments,33.7121828,-84.2045923,ChIJWX-jz56r9YgRQI_5LPpYaBQ,30035,http://www.friendlyhillsga.com/,"10 Friendly Hills Dr, Decatur, GA 30035, USA",https://maps.google.com/?cid=1470523109856087872,(770) 981-0256
KRC Ridge,33.743065,-84.221324,ChIJYau3ctGr9YgRO2WfwdedTRc,30035,http://www.krcridge.com/,"4565 Covington Hwy, Decatur, GA 30035, USA",https://maps.google.com/?cid=1679171786071041339,(404) 289-5380
Autumn Cove,33.7071408,-84.137999,ChIJ_VYXWqmt9YgRQbwN72OSrxk,30038,,"6200 Hillandale Dr, Lithonia, GA 30058, USA",https://maps.google.com/?cid=1850858929782635585,(770) 981-5460
Creekside Corners,33.6968585,-84.1716188,ChIJ1Rej8o6s9YgR7RvxImNzfsY,30038,http://hpicreeksidecorners.com/,"5301 W Fairington Pkwy, Lithonia, GA 30038, USA",https://maps.google.com/?cid=14302996336200457197,(770) 323-2265
37 Treeview Apartment,33.6962445,-84.1573444,ChIJ2VoUGPGs9YgRLfmx5k-i_8I,30038,http://www.37treeview.com/contact_us/,"37 Tree View Dr, Lithonia, GA 30038, USA",https://maps.google.com/?cid=14051127826475776301,(770) 981-6020
Walden Brook Apartments,33.702751,-84.159661,ChIJ33i_PPas9YgR0bD8zLjRmuU,30038,http://www.waldenbrookapts.com/,"100 Walden Brook Dr, Lithonia, GA 30038, USA",https://maps.google.com/?cid=16544766772742238417,(866) 591-9967
Lexington On the Green,33.7055058,-84.1513758,ChIJ38NHq1es9YgR5haGeEbD9kU,30038,http://www.lexingtononthegreen.net/,"5850 Hillandale Dr, Lithonia, GA 30058, USA",https://maps.google.com/?cid=5041431540325029606,(770) 808-1181
The Retreat at Stonecrest,33.7039449,-84.110756,ChIJ4Wdo3oKt9YgRWP15w0mHl6c,30038,http://www.retreatatstonecrestapts.com/,"40 Amanda Dr, Lithonia, GA 30058, USA",https://maps.google.com/?cid=12076269676699188568,(770) 482-3887
Chelsea Place Apartments,33.717531,-84.112315,ChIJ8XPA3pGt9YgR9Y9VqDal6N4,30038,http://www.livewellchelseaplace.com/chelsea-place-lithonia-ga,"2361 Parc Chateau Dr, Lithonia, GA 30058, USA",https://maps.google.com/?cid=16062269725187870709,(770) 482-2530
Ashley Vista Apartments,33.708272,-84.145822,ChIJ9w7_U6ut9YgRBxfkyYnhPgI,30038,http://www.ashleyvista.com/,"100 Camellia Ln, Lithonia, GA 30058, USA",https://maps.google.com/?cid=161814618545854215,(770) 766-7972
THE HILLS AT FAIRINGTON,33.697851,-84.1450418,ChIJfaPqbf6s9YgRTOTOHwMXArg,30038,https://www.mercyhousing.org/GA-Hills-At-Fairington,"5959 Fairington Rd, Lithonia, GA 30038, USA",https://maps.google.com/?cid=13259185555118154828,(770) 981-8233
Highland Greens Apartments,33.7005458,-84.1604048,ChIJiVocNfSs9YgRukeg2tVdFXw,30038,,"421 Meadowood Dr, Lithonia, GA 30038, USA",https://maps.google.com/?cid=8941155808291342266,(770) 981-5452
Wesley Providence Apartments,33.6946455,-84.1058187,ChIJJWhZhY-y9YgRnIdLcvwVpO0,30038,http://www.wesleyprovidence.com/,"100 Wesley Kensington Cir, Lithonia, GA 30038, USA",https://maps.google.com/?cid=17123835857162962844,(678) 274-6421
Wesley Stonecrest Apartments,33.682951,-84.0963037,ChIJJWhZhY-y9YgRr3edyRXAYOY,30038,http://www.wesleystonecrest.com/,"100 Wesley Stonecrest Cir, Lithonia, GA 30038, USA",https://maps.google.com/?cid=16600479426297034671,(678) 274-6945
Windwood forest Apartments,33.7081934,-84.1364992,ChIJs3qhxa6t9YgRPivmGWr_brE,30038,,"6250 Hillandale Dr, Lithonia, GA 30058, USA",https://maps.google.com/?cid=12785437223317547838,(770) 981-8803
Cambridge Heights,33.7078952,-84.1404326,ChIJs9jCe6yt9YgRJatJdMYPUj4,30038,http://www.liveatcambridgeheights.com/,"6136 Hillandale Dr, Lithonia, GA 30058, USA",https://maps.google.com/?cid=4490669123470732069,(770) 981-6323
The Oaks at Stonecrest,33.7049125,-84.1171577,ChIJu8Q6nZ6t9YgR2nJTQ57Mopg,30038,,"2795 Evans Mill Rd, Lithonia, GA 30058, USA",https://maps.google.com/?cid=10998578220098613978,(770) 482-1429
Devon Place,33.7003042,-84.1594576,ChIJv_KQNPSs9YgR5u6cToogCFE,30038,http://www.devonplaceapartments.com/,"421 Meadowood Dr, Lithonia, GA 30038, USA",https://maps.google.com/?cid=5838952695282331366,
Harvard Place Apartments,33.705753,-84.135514,ChIJW4RVHamt9YgRq1BuNrvve74,30038,http://www.harvardplaceatlapts.com/,"6256 Hillandale Dr, Lithonia, GA 30058, USA",https://maps.google.com/?cid=13725827876692840619,(855) 980-6013
Creekside Crossing Apartment Homes,33.696234,-84.17465,ChIJW7P-eo-s9YgRWAgS3L0rDm4,30038,http://www.creeksidecrossingapts.com/,"G & E Apartment Reit Creekside, 100 Cavalier Crossing, Lithonia, GA 30038, USA",https://maps.google.com/?cid=7930324088287004760,(770) 808-0860
Wesley Kensington Apartment Homes,33.6800298,-84.0993495,ChIJY1VVVSWt9YgRe1AFJFy4i4E,30038,http://www.wesleykensington.com/,"100 Wesley Kensington Cir, Lithonia, GA 30038, USA",https://maps.google.com/?cid=9334757358536315003,(770) 783-3503
The Columns at Killian Hill,33.834653,-84.063852,ChIJFfZShIG69YgR6yUwlemCfIQ,30039,http://www.columnsapartments.com/apartments/ga/snellville/the-columns-at-killian-hill/index.aspx?p=1,"2300 Country Walk, Snellville, GA 30039, USA",https://maps.google.com/?cid=9546649249860560363,(770) 982-0098
Green Leaf at Killian Hill Apartments,33.8356511,-84.0668817,ChIJt8csqHiw9YgRRd01X_uqHDs,30039,,"1501 Wiloaks Dr, Snellville, GA 30039, USA",https://maps.google.com/?cid=4259467344196525381,
Killian Hill Apartments,33.8354395,-84.0666961,ChIJzdZ92oK69YgROVYNvAZb68w,30039,http://www.cflane.com/id/1597/killian-hill-apartments-snellville-ga-30039,"1501 Wiloaks Dr, Snellville, GA 30039, USA",https://maps.google.com/?cid=14765995887747225145,(678) 691-8710
Woodcrest Village Apartments,33.71987,-84.144819,ChIJ4UGCXUus9YgRyK9cTdilmqw,30058,,"2535 Woodcrest Walk, Lithonia, GA 30058, USA",https://maps.google.com/?cid=12437435669366484936,(844) 237-3493
Villas On Main,33.707938,-84.111535,ChIJExuMM5ut9YgR5SxO7GwF0_U,30058,http://www.villasonmainga.com/,"6813 Main St, Lithonia, GA 30058, USA",https://maps.google.com/?cid=17713507724757445861,(770) 482-7557
Arbor Crossings Apartments,33.7112766,-84.1352394,ChIJKWiXpbGt9YgRgUUIEKTxvR4,30058,http://www.arborcrossings.com/,"10 Arbor Crossing Dr, Lithonia, GA 30058, USA",https://maps.google.com/?cid=2215192278682060161,(770) 981-5471
Terrace At Parkview,33.7126133,-84.1109247,ChIJkwPPVoWt9YgRM239E0g67aU,30058,https://www.mercyhousing.org/southeast-terraces-at-parkview,"6800 Parkview Trail, Lithonia, GA 30058, USA",https://maps.google.com/?cid=11956276666985966899,(770) 484-7580
The Reserve Apartments,33.7040425,-84.1588611,ChIJs8JQ0Vis9YgRPq6_ryxqBNk,30058,,"5650 Hillandale Dr, Lithonia, GA 30058, USA",https://maps.google.com/?cid=15637740546296884798,(770) 593-2040
Grovewood Park Apartments,33.7077962,-84.1385987,ChIJu2ULG6yt9YgREMZml7a4IFo,30058,,"6170 Hillandale Dr, Lithonia, GA 30058, USA",https://maps.google.com/?cid=6494393757031908880,(770) 808-4431
Alexander at Stonecrest Apartments,33.7686349,-84.0790565,ChIJWwajkr-x9YgRqaaIZraLxgg,30058,http://www.alexanderatstonecrest.com/,"100 Leslie Oaks Dr, Lithonia, GA 30058, USA",https://maps.google.com/?cid=632346413212673705,(770) 482-7759
Haverly At Stone Mountain,33.7988176,-84.2034567,ChIJ2RkUA9yo9YgR3lcIIswDQdo,30072,http://thehaverly.com/,"2700 Summit Creek Dr, Stone Mountain, GA 30083, USA",https://maps.google.com/?cid=15726855549033666526,(404) 292-1800
KRC Bridge,33.8126716,-84.1915956,ChIJ9-FEZcmo9YgRKwFCJmR08YQ,30072,http://www.krcbridge.com/contact_us/,"1173 N Hairston Rd, Stone Mountain, GA 30083, USA",https://maps.google.com/?cid=9579565855881167147,(770) 469-2058
Linden Ridge Apartment Homes,33.8015101,-84.2175498,ChIJc9SPW-Oo9YgRIsKegGkqTnc,30072,http://www.jamcoproperties.com/contact_leasing/41/Linden-Ridge-Apartment-Homes,"5400 Memorial Dr, Stone Mountain, GA 30083, USA",https://maps.google.com/?cid=8596855371314676258,(888) 415-7830
Shadow Trace Apartments,33.8070236,-84.1931888,ChIJI925Ks6o9YgRHjgqew8TF1E,30072,http://rjamesproperties.com/properties/shadow-trace-apartments/,"105 Trace Terrace, Stone Mountain, GA 30083, USA",https://maps.google.com/?cid=5843159998748309534,(404) 299-3614
Highland Forest,33.809717,-84.198031,ChIJicQCx8Wo9YgRwjdqkFQosow,30072,,"4719 Central Dr, Stone Mountain, GA 30083, USA",https://maps.google.com/?cid=10138210054829651906,
Ashgrove Apartments,33.78883,-84.212265,ChIJizRW_Bup9YgRqmS14_41IPo,30072,http://livewellashgrove.com/,"481 Hambrick Rd, Stone Mountain, GA 30083, USA",https://maps.google.com/?cid=18023465077595006122,(404) 292-6022
Polo Club Apartments,33.7942485,-84.2100493,ChIJj_cJPR6p9YgRf1qtWA1XjPM,30072,http://poloclubatlapts.com/,"100 Ashley Creek Cir, Stone Mountain, GA 30038, USA",https://maps.google.com/?cid=17549497562789927551,(404) 800-9865
Hairston Lake Apartments,33.807817,-84.191597,ChIJj7hafc6o9YgR-WSfSXI8eiE,30072,http://www.dekalbhousing.org/properties/hairston-lake,"1023 N Hairston Rd, Stone Mountain, GA 30083, USA",https://maps.google.com/?cid=2412307011969443065,(404) 296-4116
Mountain Crest,33.810516,-84.1919679,ChIJjzzCp5ud4RQRMN0cUuetsoc,30072,,"1075 N Hairston Rd, Stone Mountain, GA 30083, USA",https://maps.google.com/?cid=9778068950001442096,(404) 296-4094
Spring Chase Apartments,33.7892587,-84.2267489,ChIJKdd7SAep9YgReOQ7VB9rh8Q,30072,http://www.dekalbhousing.org/properties/spring-chase,"4949 Memorial Dr, Stone Mountain, GA 30083, USA",https://maps.google.com/?cid=14161405335591183480,(404) 292-4012
West Gate Manor,33.8076719,-84.183199,ChIJuZ36ADOv9YgRAJByr7UW4i0,30072,,"5030 W Mountain St, Stone Mountain, GA 30083, USA",https://maps.google.com/?cid=3306230046031777792,(770) 469-0212
Eagle Springs Apartments,33.8099233,-84.1875019,ChIJVXC_g8yo9YgR8faBDJrrxxQ,30072,,"600 Eagle Springs Way, Stone Mountain, GA 30083, USA",https://maps.google.com/?cid=1497424447991314161,(770) 879-1900
Southern Oaks Apartments,33.806214,-84.178036,ChIJVy-A0TGv9YgRSVegy2PEmPE,30072,http://www.southernoaksapartments.net/,"5159 W Mountain St, Stone Mountain, GA 30083, USA",https://maps.google.com/?cid=17408880292497741641,(888) 515-3071
Weatherly Apartments,33.8186743,-84.1956824,ChIJW3Fcm7eo9YgRs_QfKJGRAog,30072,http://weatherlyapartmenthomes.com/,"1700 Weatherly Dr, Stone Mountain, GA 30083, USA",https://maps.google.com/?cid=9800555791741088947,(770) 498-2494
Wynview Apartments,33.810315,-84.1855889,ChIJwVNlVTOv9YgRbHJZQ4NqLTg,30072,,"4969 Central Dr, Stone Mountain, GA 30083, USA",https://maps.google.com/?cid=4048008752079139436,(770) 469-7736
Willow Lake Apartments,33.8082733,-84.1809561,ChIJX2rmhjGv9YgRD3yNc1K-POk,30072,http://www.jamcoproperties.com/property/44/Willow-Lake-Apartments,"5100 W Mountain St, Stone Mountain, GA 30083, USA",https://maps.google.com/?cid=16806517170775096335,(888) 476-1932
Wildwood at Stone Mountain,33.8019557,-84.1900777,ChIJ-xu8ttOo9YgR4yQMcSkkZrE,30072,,"6097 Memorial Dr, Stone Mountain, GA 30083, USA",https://maps.google.com/?cid=12782944352746611939,(770) 465-0462
Clifton Glen Apartments,33.794938,-84.214227,ChIJYWCz8x2p9YgRDZ7VcYynh8o,30072,http://www.cliftonglen.com/,"600 Hambrick Rd, Stone Mountain, GA 30083, USA",https://maps.google.com/?cid=14593817339164466701,(678) 554-4559
Mountain Vista Apartment Homes,33.7839486,-84.159834,ChIJ2XRCOOau9YgRpLODA4M4cgM,30074,,"490 S Stone Mountain Lithonia Rd, Stone Mountain, GA 30088, USA",https://maps.google.com/?cid=248323064809632676,(770) 469-0663
The Reserve at Stone Creek,33.7534936,-84.1913239,ChIJ6Z3XZ1ep9YgRMz_usPUuEeI,30074,http://www.robbinspropertyllc.com/Reserveatstonecreek/stone-mountain-ga-apartments.asp,"1420 S Hairston Rd, Stone Mountain, GA 30088, USA",https://maps.google.com/?cid=16289852959946063667,(770) 593-0604
Arbor Mill Apartments,33.905188,-84.226978,ChIJRz9rPOCm9YgRVFgCerOzcp0,30074,http://www.arbormill.com/,"1850 Graves Rd, Norcross, GA 30093, USA",https://maps.google.com/?cid=11345327994727192660,(678) 257-4670
Willeo Creek Apartments,34.005611,-84.394646,ChIJ3X8oKt4M9YgRzfaNbY3-13E,30075,http://www.willeocreek.com/,"88 Barrington Oaks Ridge, Roswell, GA 30075, USA",https://maps.google.com/?cid=8203305129660511949,(877) 786-3505
Marquis Trace Apartment Homes,34.0168919,-84.3238605,ChIJ54iJSTEL9YgRo8fp0GsuP-E,30075,http://www.marquistrace.com/,"1450 Raintree Way, Roswell, GA 30076, USA",https://maps.google.com/?cid=16230742622667917219,(770) 993-0138
"Rental Relocation, Inc.",34.0325784,-84.3459862,ChIJdWevqK909YgRnaVRmiOJrcI,30075,http://www.rentalrelocation.com/,"535 Colonial Park Dr, Roswell, GA 30075, USA",https://maps.google.com/?cid=14028019200334865821,(770) 641-8393
Roswell City Walk,34.0263914,-84.3561977,ChIJfcdwaZVy9YgRDDI4N0R9oHE,30075,http://www.roswellcitywalk.com/,"3000 Forrest St, Roswell, GA 30075, USA",https://maps.google.com/?cid=8187681854497239564,(866) 873-2015
The Crossings Wood Bridge,34.0262879,-84.3288972,ChIJiQmHqst09YgR-VdwVTUb7ew,30075,,"100 Creekside Way, Roswell, GA 30076, USA",https://maps.google.com/?cid=17072331678312060921,(855) 383-8745
555 Mansell Apartments,34.042682,-84.33911,ChIJiTrSJLx09YgRmfiUkoHazmU,30075,http://www.555mansell.com/,"555 Eagles Crest Village Ln, Roswell, GA 30076, USA",https://maps.google.com/?cid=7336041093077989529,(770) 998-9103
ARIUM Riverside,34.0073303,-84.3536277,ChIJj-azJV8L9YgRjrzCkvaMzC8,30075,http://ariumriverside.com/,"100 Chattahoochee Cir, Roswell, GA 30075, USA",https://maps.google.com/?cid=3444282805683666062,(770) 587-5665
The Lake House at Martin's Landing,34.008051,-84.316546,ChIJL4EDiSYL9YgRUsKa7xxGRMc,30075,http://www.aspensquare.com/georgia/roswell/apartments/the-lake-house-at-martins-landing,"1500 Harbor Landing, Roswell, GA 30076, USA",https://maps.google.com/?cid=14358678602056909394,(770) 993-8220
The Lake House at Martin's Landing,34.006612,-84.315799,ChIJMRY7fSYL9YgR3yvAv4juzrg,30075,http://lakehouseatmartinslanding.com/,"1500 Harbor Landing, Roswell, GA 30076, USA",https://maps.google.com/?cid=13316843419281140703,(770) 993-8220
Walton Centennial Apartment Homes,34.011612,-84.300119,ChIJd5fifMUK9YgR8PwRm-XEPkc,30076,http://www.waltoncentennial.com/,"900 Walton Way, Roswell, GA 30076, USA",https://maps.google.com/?cid=5133757115677146352,(770) 203-1055
Autumn Ridge Apartments,34.001204,-84.300023,ChIJi3k72MIK9YgRPIdUfaRNrhk,30076,http://www.liveatautumnridge.com/,"100 Autumn Ridge Trail, Roswell, GA 30076, USA",https://maps.google.com/?cid=1850501865768519484,(770) 587-4374
Arium North Point,34.0547353,-84.3236359,ChIJJZnll-109YgRIGs-rX3SMsE,30076,http://ariumnorthpoint.com/,"11251 Alpharetta Hwy, Roswell, GA 30076, USA",https://maps.google.com/?cid=13921420835374918432,(770) 442-1773
Park 83 Apartments,34.0134238,-84.3027306,ChIJKxNeV9AK9YgRzuMwEKxagYk,30076,http://www.park83.com/,"100 Calibre Creek Pkwy, Roswell, GA 30076, USA",https://maps.google.com/?cid=9908300350244316110,(678) 554-4571
Park156 Apartments,33.905684,-84.082899,ChIJKQPb1EO79YgR3KWXJGlwL7U,30078,http://www.livepark156.com/,"156 Bethesda Church Rd, Lawrenceville, GA 30044, USA",https://maps.google.com/?cid=13055777441658152412,(770) 921-7794
Oak Forest Apartments,33.7845781,-84.2517417,ChIJJ4UtzMep9YgRoItMJ9cgyuA,30079,,"338 Hatton Dr # D, Scottdale, GA 30079, USA",https://maps.google.com/?cid=16197795118240795552,(404) 296-1860
Ashford Pavilion,33.785799,-84.244001,ChIJv4BIcLqp9YgRbYx2aNN-UmM,30079,http://www.ashfordpavilion.com/,"3681 N Decatur Rd, Decatur, GA 30032, USA",https://maps.google.com/?cid=7156922204300938349,(404) 806-7756
Mills Creek Crossing Apartment Home,33.7943359,-84.2556298,ChIJVzLUERYH9YgR6eoHMurzORM,30079,http://www.norsouth.com/,"3175 Mills Creek Circle, Scottdale, GA 30079, USA",https://maps.google.com/?cid=1385406547580414697,(678) 384-8939
Northern Pines Apartments,33.7988947,-84.2479894,ChIJxcOEhUqo9YgR0iBy0NN8hmA,30079,http://rjamesproperties.com/properties/northern-pines/,"774 Northern Ave, Clarkston, GA 30021, USA",https://maps.google.com/?cid=6955383923697393874,(404) 228-9174
La Carre Apartments,33.7960377,-84.2369483,ChIJxRnTzFKo9YgRkBdT0bSPB7c,30079,http://www.nelkinrealestate.com/lacarre.php,"700 N Indian Creek Dr, Clarkston, GA 30021, USA",https://maps.google.com/?cid=13188668040546555792,(404) 294-1500
Mountain Lake Apartments,33.82105,-84.191352,ChIJbc35pbao9YgRiDVnbsu1ncc,30083,http://www.jamcoproperties.com/property/43/Mountain-Lake-Apartments,"1401 N Hairston Rd, Stone Mountain, GA 30083, USA",https://maps.google.com/?cid=14383852670226478472,(888) 481-7159
Ashland Lakeview,33.8212999,-84.1941127,ChIJg_gJL7eo9YgRkVN-1NhsIeY,30083,http://www.ashlandlakeview.com/,"200 Summit Lake Dr, Stone Mountain, GA 30083, USA",https://maps.google.com/?cid=16582654981488661393,(770) 615-6216
The Pointe Apartments,33.8228923,-84.2113885,ChIJI4NRqJao9YgRh-LcqMj9mOw,30083,http://www.thepointeatlapts.com/,"5130 E Ponce de Leon Ave, Stone Mountain, GA 30083, USA",https://maps.google.com/?cid=17048655427679347335,(855) 572-9265
Lake Point (The Park at Hairston),33.7637829,-84.1934518,ChIJSZ98SU-p9YgRuXrhzTZt1Mk,30083,,"1038 S Hairston Rd, Stone Mountain, GA 30088, USA",https://maps.google.com/?cid=14543369178835942073,(404) 292-2888
The Park at East Ponce Apartments,33.8210077,-84.1795951,ChIJVQdUTEmv9YgR3itAH0sKqDI,30083,,"1900 Tree Mountain Pkwy, Stone Mountain, GA 30083, USA",https://maps.google.com/?cid=3650178815746911198,(770) 498-8388
Marquis chase Apartments,33.7968647,-84.2081463,ChIJX69bXeCo9YgRtHzm3jkVkjI,30083,,"400 Ashley Pl, Stone Mountain, GA 30083, USA",https://maps.google.com/?cid=3643998386793118900,(404) 292-5286
Somerset at the Crossings- Tucker,33.8665691,-84.1820027,ChIJ_yi9MNml9YgRN_U3_TStTUs,30084,http://www.somersetatthecrossings.com/,"100 Summerwalk Pkwy, Tucker, GA 30084, USA",https://maps.google.com/?cid=5426183569149523255,(678) 554-4575
ARIUM Station 29,33.853564,-84.2057971,ChIJ9_KrMBam9YgR3iUDLJi58_E,30084,http://ariumstation29.com/,"2334 Fuller Way, Tucker, GA 30084, USA",https://maps.google.com/?cid=17434482645705893342,(770) 908-8510
Southern Woods Apartments,33.891604,-84.213699,ChIJhTNlDvGm9YgRMSdV4o3dEKM,30084,http://southern-woods.com/,"1286 Southern Woods Dr, Tucker, GA 30084, USA",https://maps.google.com/?cid=11750135029266982705,(770) 491-7745
The Arbors Apartments,33.8657896,-84.1854093,ChIJISDZUt-l9YgR2yJuzCBP2uM,30084,http://www.thearborsaptsatl.com/,"100 Arbor Cir, Tucker, GA 30084, USA",https://maps.google.com/?cid=16418522393819882203,(855) 220-2380
Northgate Townhouses,33.8424701,-84.2306086,ChIJj54oqdWn9YgRqCT39SEcC60,30084,,"3555 Lawrenceville Hwy, Tucker, GA 30084, USA",https://maps.google.com/?cid=12469090925491463336,(770) 934-7869
Bradford Park Apartments,33.8359938,-84.2099182,ChIJjVWL-p6o9YgRQ7IoDu53-wc,30084,,"1839 Fellowship Rd #C, Tucker, GA 30084, USA",https://maps.google.com/?cid=575185241743340099,(770) 939-3178
Northlake Apartments,33.8406304,-84.2427096,ChIJk24nLnao9YgRgIeRev9qcIc,30084,http://atlnorthlake.prospectportal.com/,"2006 Northlake Pkwy, Tucker, GA 30084, USA",https://maps.google.com/?cid=9759418038017427328,(404) 539-9662
Stanford Oaks,33.8444913,-84.2118236,ChIJp0eQUyGm9YgRMn0Hw9tJqC8,30084,http://www.stanfordoaksapartments.com/,"2035 Idlewood Rd, Tucker, GA 30084, USA",https://maps.google.com/?cid=3434075924088716594,(770) 884-4670
Paces Crossing,33.8756718,-84.1890572,ChIJPY1WY3mm9YgR-Ybhnho05lQ,30084,http://www.pacescrossingapartments.com/,"4300 Jimmy Carter Blvd, Norcross, GA 30093, USA",https://maps.google.com/?cid=6117634432768771833,(770) 676-1145
Gwinnett Station,33.8916556,-84.2084689,ChIJse0fEPOm9YgRpCeXtSplTzY,30084,http://www.gwinnettstation.com/,"1250 Old Norcross Tucker Rd, Tucker, GA 30084, USA",https://maps.google.com/?cid=3913457835317864356,(770) 615-7385
Grove Point Apartments,33.877701,-84.189701,ChIJua_U43um9YgRvK2p8Wwm6qg,30084,http://www.grovepointapts.com/,"4350 Jimmy Carter Blvd, Norcross, GA 30093, USA",https://maps.google.com/?cid=12171583192274939324,(770) 621-0055
Green Park Apartments,33.843747,-84.250713,ChIJuVsxfOCn9YgR9Siaz2yd2u8,30084,http://greenparkapts.com/,"2037 Weems Rd, Tucker, GA 30084, USA",https://maps.google.com/?cid=17283299610652715253,(770) 724-5006
Carrington Chase Apartments,33.8901255,-84.2117982,ChIJV3DdLI2m9YgRjqoRIdP27qg,30084,http://www.carringtonchasetucker.com/,"6280 S Norcross Tucker Rd, Tucker, GA 30084, USA",https://maps.google.com/?cid=12172938229482367630,(770) 934-1404
Lakeview Estates,33.894039,-84.209158,ChIJX9l11fOm9YgRgnCHwExBUhc,30084,,"6168 S Norcross Tucker Rd, Tucker, GA 30084, USA",https://maps.google.com/?cid=1680477408866037890,(770) 938-4009
Colonial Place Apartments,33.8949067,-84.2128762,ChIJz5zlAPKm9YgRyoRlRuQC7uY,30084,http://rjamesproperties.com/properties/colonial-place/nggallery/image/cp-sign,"9952 S National Cir NW, Tucker, GA 30084, USA",https://maps.google.com/?cid=16640240852637418698,(770) 270-1663
Terra Creek,33.8132081,-84.1882253,ChIJi346AMuo9YgRKGUBSn5NxYU,30086,,"4900 Central Dr, Stone Mountain, GA 30083, USA",https://maps.google.com/?cid=9639195782259238184,(877) 635-2678
Landmark at MountainView,33.8182892,-84.1815751,ChIJsYGGNEqv9YgR4Z72Xb7VacQ,30086,http://www.landmarkatmountainview.com/,"1310 Wood Bend Dr, Stone Mountain, GA 30083, USA",https://maps.google.com/?cid=14153078317585440481,(770) 498-4281
Oakwood Vista Apartments,33.872143,-84.189434,ChIJ2zMTQXem9YgRYN6u974CXEY,30087,http://www.oakwoodvista.com/,"100 Ardsley Pl, Norcross, GA 30093, USA",https://maps.google.com/?cid=5069930299734810208,(770) 621-0160
Highland Grove Apartments,33.8286925,-84.1122361,ChIJid5dRvev9YgRyXOLoiyTIaM,30087,,"1900 Glenn Club Dr, Stone Mountain, GA 30087, USA",https://maps.google.com/?cid=11754838322328597449,(770) 879-0400
Ashland Pines Apartments,33.757295,-84.196145,ChIJA7hb81Cp9YgRfh0m6RAeDrI,30088,http://www.ashlandpinesapts.com/,"1247 Adcox Rd, Stone Mountain, GA 30088, USA",https://maps.google.com/?cid=12830225446405021054,(877) 959-7313
Sterling chase apts,33.7953342,-84.2088133,ChIJEyfWgeCo9YgRjEmEQtkAo3Q,30088,,"400 Ashley Pl, Stone Mountain, GA 30083, USA",https://maps.google.com/?cid=8404562262727346572,(404) 292-5286
Stoneridge at Hidden Hills,33.728756,-84.187354,ChIJnWb9EfWr9YgR5r5lScVB5sQ,30088,http://stoneridgeathiddenhills.cflane.com/,"1000 Hidden Chase, Stone Mountain, GA 30088, USA",https://maps.google.com/?cid=14188099991673093862,(770) 987-8933
Antioch Manor Estates,33.7380554,-84.1962432,ChIJp36R_e-r9YgRTTNgv4Knrgs,30088,http://www.antiochmanorliving.com/,"4711 Bishop Ming Blvd, Stone Mountain, GA 30088, USA",https://maps.google.com/?cid=841794360363201357,(770) 322-8839
Villages of East Lake,33.7436867,-84.3147705,ChIJuVTPLC8B9YgR_1NXGEbmRZw,30088,http://eastlakeatl.com/,"460 E Lake Blvd SE, Atlanta, GA 30317, USA",https://maps.google.com/?cid=11260659632040268799,(404) 373-9598
The Promenade at Berkeley,33.9922521,-84.1679111,ChIJ0XsHMD6i9YgRQRFm2-rhJwQ,30097,http://www.livewellpromenadeatberkeley.com/,"3750 Peachtree Industrial Blvd, Duluth, GA 30096, USA",https://maps.google.com/?cid=299456299062923585,(770) 497-8640
Aylesbury Farms Apartments,34.0487904,-84.181449,ChIJ78yCXc2Y9YgRkAF-bLHqfX8,30097,,"6115 Abbotts Bridge Rd, Johns Creek, GA 30097, USA",https://maps.google.com/?cid=9186756862655988112,(770) 476-5515
Colonial Grand at River Plantation,34.0081614,-84.1742135,ChIJ979itgii9YgRnqKd5cMuOsE,30097,http://cgriverplantation.maac.com/,"4130 Plantation Trace Dr, Duluth, GA 30096, USA",https://maps.google.com/?cid=13923492616875123358,(770) 623-3244
The Retreat at Johns Creek,34.0164065,-84.1811084,ChIJ9W0_BaqY9YgRJCUtWOjMR5Y,30097,http://www.retreatatjohnscreekapartments.com/,"6005 State Bridge Rd, Johns Creek, GA 30097, USA",https://maps.google.com/?cid=10828849127319479588,(770) 232-0708
The Atlantic Howell Station Apartments of Duluth,33.9962676,-84.1699922,ChIJB95hnRai9YgRvymPeZ76LQk,30097,http://www.howellstationliving.com/,"3655 Peachtree Industrial Blvd, Duluth, GA 30096, USA",https://maps.google.com/?cid=661460278844533183,(770) 476-1005
Berkshires at Howell Station Apartments,33.996645,-84.169892,ChIJB95hnRai9YgRZOH9V7xMwNs,30097,,"3655 Peachtree Industrial Blvd, Duluth, GA 30096, USA",https://maps.google.com/?cid=15834740661648482660,(770) 476-1005
The Oaks at Johns Creek,34.0602347,-84.1615436,ChIJDavHE9mY9YgRrMF2b6D_XP0,30097,http://www.oaksatjohnscreek.com/,"11000 Lakefield Pl, Johns Creek, GA 30097, USA",https://maps.google.com/?cid=18256748053983052204,(678) 615-7730
Johns Creek Hearthside,34.0568466,-84.1749278,ChIJ-fbmtGKi9YgRClozoPnJU8s,30097,http://www.hearthsidejohnscreek.com/,"11340 Medlock Bridge Road, Johns Creek, GA 30097",https://maps.google.com/?cid=14651276086738115082,(770) 418-0555
Berkeley Landing,33.9915791,-84.1699746,ChIJjbdnRzyi9YgROyn0G5m3YBA,30097,http://www.berkeleylanding.com/,"3700 Peachtree Industrial Blvd, Duluth, GA 30096, USA",https://maps.google.com/?cid=1180144970597935419,(770) 476-9422
Woodmere Trace Apartments,33.9937186,-84.1597149,ChIJJYZy10Gi9YgR7HtHjFCgTfM,30097,http://www.woodmeretrace.com/,"3550 Pleasant Hill Rd, Duluth, GA 30096, USA",https://maps.google.com/?cid=17531845192234531820,(770) 497-0584
Overlook At Berkeley Lake,33.9896996,-84.1626643,ChIJJZvrRj-i9YgRHFWcvebbVlY,30097,http://overlookatberkeleylakeapts.com/,"3475 Pleasant Hill Rd, Duluth, GA 30096, USA",https://maps.google.com/?cid=6221401719329019164,(770) 217-9612
The Regency At Johns Creek Walk,34.0526584,-84.1756314,ChIJKQmWgdCY9YgRs4sld9Wk31A,30097,http://www.regencyjohnscreek.com/,"11134 Medlock Bridge Rd, Johns Creek, GA 30097, USA",https://maps.google.com/?cid=5827557679574649779,(770) 495-8000
Colonial Grand at Berkeley Lake,33.9964352,-84.1667225,ChIJNc2O-hSi9YgRAh9-RHxrSPM,30097,http://cgberkeleylake.maac.com/,"100 Bradford Creek Trail NW, Duluth, GA 30096, USA",https://maps.google.com/?cid=17530379731008888578,(770) 622-0405
Colonial Grand at River Oaks,34.008572,-84.176143,ChIJT1FHqAWi9YgRM8j_0v4Y09o,30097,http://cgriveroaks.maac.com/,"4400 Pleasant Hill Rd, Duluth, GA 30096, USA",https://maps.google.com/?cid=15767974203094976563,(770) 623-6900
Avonlea on the River,34.0145582,-84.1819022,ChIJTaf56gOi9YgRqMARxCz9YvY,30097,http://www.avonleaontheriver.com/,"6015 State Bridge Rd, Johns Creek, GA 30097, USA",https://maps.google.com/?cid=17754031049757802664,(770) 232-4600
Howell Bridge Apartments,34.0106716,-84.1666315,ChIJTdKMqjGi9YgReClBNCJaLI0,30097,http://www.howellbridge.com/,"3350 Peachtree Industrial Blvd, Duluth, GA 30096, USA",https://maps.google.com/?cid=10172604761275181432,(770) 476-0385
Proctor Square,34.0005492,-84.143247,ChIJVfQUgmKi9YgRczn3rVucVxo,30097,http://www.greenleafmgmt.com/,"3441 Fox St NW, Duluth, GA 30096, USA",https://maps.google.com/?cid=1898157685534570867,(770) 476-5673
Wesley Plantation Apartments,33.998703,-84.17113,ChIJYYtQyhOi9YgR6cjhCG3k-6k,30097,http://www.wesleyplantation.com/,"3575 Peachtree Industrial Blvd, Duluth, GA 30096, USA",https://maps.google.com/?cid=12248634768515778793,(770) 497-0711
The Broadway at East Atlanta,33.7311323,-84.3238827,ChIJ9QWjoRcB9YgRoZXI2mxRIN4,30288,http://www.livewellbroadwayeast.com/,"1930 Flat Shoals Rd SE, Atlanta, GA 30316, USA",https://maps.google.com/?cid=16005882603643639201,(404) 241-3242
Forest Cove Apartments LLC,33.705255,-84.3563634,ChIJAaM1oykC9YgR0OZsadJxR-4,30288,,"310 Thomasville Blvd SE, Atlanta, GA 30315, USA",https://maps.google.com/?cid=17169817252899120848,(404) 622-0580
The Park At Bouldercrest,33.687206,-84.31288,ChIJCXRRxsoB9YgRvQuU5LlolH0,30288,,"26 Bouldercrest Ln, Atlanta, GA 30316, USA",https://maps.google.com/?cid=9048972698907315133,
Norstar at Wingate Apartments,33.626575,-84.357059,ChIJD3cY_tT99IgRqFcTSMKa0yc,30288,http://cflane.com/,"4685 Courtney Dr, Forest Park, GA 30297, USA",https://maps.google.com/?cid=2869807546788698024,(404) 366-7422
Rainwood Apartments,33.598782,-84.3287896,ChIJG0bc7cH-9IgR34gQ_bJ_e0U,30288,http://www.rampartnersllc.com/lake-city-fl-apartments/rainwood/,"1885 Harper Dr, Morrow, GA 30260, USA",https://maps.google.com/?cid=5006735817479063775,(770) 961-1654
Foxhall Apartments,33.6220542,-84.3690918,ChIJp1HBbjP89IgRHjLB_APV-RM,30288,,"Forest Park, GA 30297, USA",https://maps.google.com/?cid=1439415769023722014,(404) 361-8221
Park At Fort Gillem,33.6204724,-84.3113001,ChIJq8ULXgD_9IgRwQOwDGYcBuY,30288,http://www.parkfg.com/,"7 Holland Park Dr, Ellenwood, GA 30294, USA",https://maps.google.com/?cid=16574966703208793025,(404) 363-9955
Constitution Hill Apartments,33.6928216,-84.351796,ChIJQWHACYsB9YgROvCne0PgRJg,30288,http://www.constitution-hill.com/,"1177 Constitution Rd SE, Atlanta, GA 30315, USA",https://maps.google.com/?cid=10972141172623405114,(404) 627-8115
Willow Park Apartments,33.636058,-84.342746,ChIJS0QemG_-9IgREr4W7kPOk3g,30288,http://www.newagemanage.com/willow-park.html,"1466 Rockcut Rd J1, Forest Park, GA 30297, USA",https://maps.google.com/?cid=8688514897280417298,(404) 835-2252
Norstar at Wingate,33.626985,-84.356955,ChIJty_jTNT99IgR1HBhyu6gtKY,30288,http://www.cflane.com/id/1780/norstar-at-wingate-forest-park-ga-30297,"4671 Courtney Dr, Forest Park, GA 30297, USA",https://maps.google.com/?cid=12012403053561999572,(404) 366-7422
Paisley Park Apartments,33.615214,-84.3542669,ChIJwf0N1in89IgR-wz_yV6SCgg,30288,,"1120 South Ave # C1, Forest Park, GA 30297, USA",https://maps.google.com/?cid=579436437884046587,(404) 577-7368
Paradise East Apartments,33.7133984,-84.3275509,ChIJX92abQoB9YgRe-5CpCPwuzU,30288,,"1504 Bouldercrest Rd, Atlanta, GA 30316, USA",https://maps.google.com/?cid=3871952340525444731,(404) 241-2800
Shannon Lake,33.5686818,-84.5124198,ChIJB070Rhrk9IgRud92FzIcH9I,30291,http://www.shannonlakeapts.com/,"6770 Buffington Rd, Union City, GA 30291, USA",https://maps.google.com/?cid=15140851473710505913,(770) 969-7412
Hidden Lake Apartments,33.5690892,-84.5176291,ChIJCxwWUxnk9IgROOnstCphrzk,30291,http://www.southwoodrealty.com/hiddenlake.htm,"4050 Morgan Rd, Union City, GA 30291, USA",https://maps.google.com/?cid=4156647817138202936,(770) 964-0717
Oakley Shoals,33.5846339,-84.5325617,ChIJeTHmZK3m9IgRt2qQ-NPxQmA,30291,,"6295 Oakley Rd, Union City, GA 30291, USA",https://maps.google.com/?cid=6936372268814592695,(770) 964-5689
Champions Glen Apartments,33.5799163,-84.5324753,ChIJgfFV4rHm9IgR6nbE7QDvNuE,30291,http://www.champions-glen.com/,"6425 Oakley Rd, Union City, GA 30291, USA",https://maps.google.com/?cid=16228421094544275178,(770) 969-4453
The Landings at Oak Hill,33.5851936,-84.5271889,ChIJHb3YVFPh9IgRFWdJbVed_yc,30291,http://www.livewelloakhill.com/,"4300 Flat Shoals Rd, Union City, GA 30291, USA",https://maps.google.com/?cid=2882195285361649429,(770) 964-4202
Premier Club Apartments,33.594101,-84.5516655,ChIJHxRVhDHh9IgRWTtacs-Omzk,30291,http://www.livewellpremierclub.com/,"5100 Highpoint Rd, Union City, GA 30291, USA",https://maps.google.com/?cid=4151068503179934553,(770) 964-9912
Autumn Hills Apartments,33.58719,-84.5345147,ChIJL3gSMk3h9IgRI_uD_siXGGE,30291,,"4483 Flat Shoals Rd, Union City, GA 30291, USA",https://maps.google.com/?cid=6996508910639381283,(770) 969-8486
Union Station Apartments,33.5851936,-84.5271889,ChIJLxvFZazm9IgRr1bKErhfsdk,30291,,"4300 Flat Shoals Rd, Union City, GA 30291, USA",https://maps.google.com/?cid=15686424221302019759,(770) 964-4202
Oakley Woods,33.584776,-84.531204,ChIJO-h7FK3m9IgROxi7nFfyKzM,30291,http://www.oakleywoodsbyelon.com/,"6300 Oakley Rd, Union City, GA 30291, USA",https://maps.google.com/?cid=3687307178038466619,(678) 503-5336
Morgan Trace,33.5648967,-84.5202581,ChIJrbRZvR_k9IgRvnVGpLYFB3E,30291,http://www.morgantracebyelon.com/,"4065 Jonesboro Rd, Union City, GA 30291, USA",https://maps.google.com/?cid=8144484733121099198,(678) 503-5333
Bethel Towers,33.7562232,-84.3808303,ChIJ27wrj4kD9YgRhOeEudS5Q6I,30303,,"Jesse Hill Jr Dr NE, Atlanta, GA 30303, USA",https://maps.google.com/?cid=11692393380880639876,
Intown Apartments & Lofts,33.7500474,-84.4032651,ChIJA4eHtHsD9YgRgpbuFol2N_c,30303,http://www.intownloftsapartments.net/,"170 Northside Dr SW, Atlanta, GA 30313, USA",https://maps.google.com/?cid=17813837182254618242,(404) 522-7598
Veranda at Auburn Point,33.7518154,-84.3769456,ChIJc9HQ6owD9YgRrrgQjXHWRAI,30303,,"115 Hilliard St SE, Atlanta, GA 30312, USA",https://maps.google.com/?cid=163491269678512302,(404) 659-2200
Ashley Auburn Pointe,33.7510383,-84.3779123,ChIJdeOFBnbC9YgRmHsldVDY4EU,30303,http://www.ashleyauburnpointe.com/,"357 Auburn Pointe Dr SE, Atlanta, GA 30312, USA",https://maps.google.com/?cid=5035262223474588568,(844) 300-8115
Capitol Gateway,33.7453517,-84.384106,ChIJF9DnQ5AD9YgRiugit9xuFFA,30303,http://www.liveatcapitolgateway.com/,"89 Woodward Ave SE, Atlanta, GA 30312, USA",https://maps.google.com/?cid=5770358916812826762,(855) 750-6984
Muse's Lofts,33.7552377,-84.3892813,ChIJGysJ5IYD9YgRVq8BBT0FeIM,30303,http://www.livethemuses.com/,"50 Peachtree St NW, Atlanta, GA 30303, USA",https://maps.google.com/?cid=9473327575808978774,(404) 523-7344
CityWalk Apartments,33.7553204,-84.3812804,ChIJh2xtLYYD9YgR6dYotPlD8fc,30303,http://www.citywalkatl.com/,"171 Auburn Ave NE, Atlanta, GA 30303, USA",https://maps.google.com/?cid=17866135936503961321,(404) 521-3008
Artist Square,33.7468065,-84.4048732,ChIJH8AvfnAD9YgR9DAg0gVS5P8,30303,http://www.artistsquareapartments.com/,"23 Larkin Pl SW, Atlanta, GA 30313, USA",https://maps.google.com/?cid=18438952959315292404,(404) 584-6556
City Plaza Apartments,33.7488202,-84.3918064,ChIJjaxHa4MD9YgRiFw9e1lKeiY,30303,http://www.cityplazajmg.com/,"133 Trinity Ave SW, Atlanta, GA 30303, USA",https://maps.google.com/?cid=2772610268780125320,(678) 608-4352
AMLI Management Company,33.7605251,-84.3875815,ChIJmy2YWWkV9YgRFwKjnBFq8qQ,30303,http://www.amli.com/,"260 Peachtree St NW #1700, Atlanta, GA 30303, USA",https://maps.google.com/?cid=11885678990459077143,(770) 281-3300
The Villages At Castleberry Hill,33.7467316,-84.4083484,ChIJP5bF3m8D9YgRRpysdkBL_8M,30303,http://www.villageatcastleberryhill.com/,"600 Greensferry Ave SW, Atlanta, GA 30314, USA",https://maps.google.com/?cid=14123089696698178630,(404) 523-1330
Metropolitan,33.754668,-84.3906335,ChIJR84HyIYD9YgRFHFKxN5h-Ro,30303,,"20 Marietta St, Atlanta, GA 30303, USA",https://maps.google.com/?cid=1943692323590926612,(404) 223-1555
One12 Courtland Apartments,33.7573476,-84.3845536,ChIJrdTNI4gD9YgRXAwqUbdnj54,30303,http://www.one12courtland.com/,"112 Courtland St NE, Atlanta, GA 30303, USA",https://maps.google.com/?cid=11425464816700623964,(855) 265-9112
The Residences at CityCenter Apartments,33.7560118,-84.4049388,ChIJwwpL5nwD9YgR8WsfMVA2wP0,30303,http://www.residencescitycenter.com/,"55 Maple St NW, Atlanta, GA 30314, USA",https://maps.google.com/?cid=18284674205173640177,(855) 696-4500
Museum Tower,33.7625563,-84.3914693,ChIJ-zMeyX4E9YgRvHDw0bxqSR4,30303,http://www.museumtower.com/Welcome-to-The-MUSEUM-TOWER-Web-Site~139461~14633.htm,"285 Centennial Olympic Park Dr NW, Atlanta, GA 30313, USA",https://maps.google.com/?cid=2182392853646307516,(404) 230-9945
Roswell Court Condominiums,33.848831,-84.381478,ChIJ0-xRPGIP9YgRARxpw_11jBw,30305,http://www.roswellcourt.com/,"39 Roswell Ct NE, Atlanta, GA 30305, USA",https://maps.google.com/?cid=2057148862567095297,(404) 812-0713
Haynes House,33.821044,-84.3888917,ChIJC2JseKMF9YgRevzWQcAqAeE,30305,http://thehayneshouse.com/,"2420 Peachtree St NW, Atlanta, GA 30305, USA",https://maps.google.com/?cid=16213287138737192058,(404) 341-6191
The Haynes House Apartments,33.820787,-84.388823,ChIJC2JseKMF9YgRkR9mb7ubpxw,30305,http://thehayneshouse.com/?utm_source=local&utm_medium=organic&utm_content=GMB&utm_campaign=GTMA,"2420 Peachtree Rd, Atlanta, GA 30305, USA",https://maps.google.com/?cid=2064790183502815121,(404) 467-8300
Victoria Apartments,33.850271,-84.382418,ChIJd7NksmMP9YgROcu29A9Fsss,30305,http://www.habershamapts.com/property/victoria,"3518 Roswell Rd NE, Atlanta, GA 30305, USA",https://maps.google.com/?cid=14677870070386314041,(404) 237-0228
Allure in Buckhead Village,33.837519,-84.375764,ChIJHaQ8No0F9YgRQugqRNN6p1o,30305,http://allurebuckhead.maac.com/,"360 Pharr Rd NE, Atlanta, GA 30305, USA",https://maps.google.com/?cid=6532324832324544578,(404) 231-8743
Post Peachtree Hills,33.8185166,-84.3752759,ChIJk0R0p7gF9YgRKLhdcr1ADqw,30305,http://www.postproperties.com/GA/Atlanta/Buckhead/Post-Peachtree-Hills,"350 Peachtree Hills Ave NE, Atlanta, GA 30305, USA",https://maps.google.com/?cid=12397918006609295400,(404) 365-9511
Westminster at Buckhead Apartments,33.834644,-84.386728,ChIJL4mNlpoF9YgRaUjlUSU8gbY,30305,http://venterraliving.com/buckhead/rent_pricing_availability?id=BHGGM005,"2900 Pharr Ct S Northwest, Atlanta, GA 30305, USA",https://maps.google.com/?cid=13150858517883996265,(404) 287-2705
Piedmont Road High Rise,33.8531347,-84.3807167,ChIJn7Lt_WMP9YgRtajQLUxJLDg,30305,,"3601 Piedmont Rd NE, Atlanta, GA 30305, USA",https://maps.google.com/?cid=4047690756634224821,(404) 814-2106
2460 Peachtree Apartments,33.8220126,-84.3883452,ChIJpz3nq6MF9YgRhFUzKH0GZJw,30305,http://www.2460peachtree.com/,"2460 Peachtree St NW, Atlanta, GA 30305, USA",https://maps.google.com/?cid=11269139302202955140,(866) 754-4279
Tremont Apartment Homes,33.853065,-84.382188,ChIJUd1GiGMP9YgRtYPs_hqO9oM,30305,http://www.livetremont.com/,"3645 Habersham Rd NE, Atlanta, GA 30305, USA",https://maps.google.com/?cid=9508943909836587957,(404) 720-5788
Highland View Apartments,33.775732,-84.364024,ChIJ4WU3wxkE9YgRzO4rBan-OrY,30306,http://highlandviewatl.com/,"784 Ponce De Leon Pl NE, Atlanta, GA 30306, USA",https://maps.google.com/?cid=13131087665441795788,(404) 881-6680
City View Apartments,33.7613233,-84.3735867,ChIJ90CrEAsE9YgRIdPvubM5-S4,30306,http://www.cityviewatlanta.com/,"433 Highland Ave NE, Atlanta, GA 30312, USA",https://maps.google.com/?cid=3384800039027069729,(404) 223-9260
Telephone Factory Lofts,33.7680976,-84.3603015,ChIJ9U9etAQE9YgRcSR8JAXDEOQ,30306,http://www.telephonefactoryapts.com/,"828 Ralph McGill Blvd NE, Atlanta, GA 30306, USA",https://maps.google.com/?cid=16433849467129308273,(404) 577-0905
William Booth Towers The Salvation Army,33.7733634,-84.3503504,ChIJdSmeyqYG9YgRTRFloPvX6gY,30306,http://salvationarmyatlanta.org/,"1125 Ponce De Leon Ave NE, Atlanta, GA 30306, USA",https://maps.google.com/?cid=498448184505602381,(404) 875-7495
Braden Fellman Group Ltd,33.7734915,-84.3569387,ChIJla9vKxwE9YgRen6YxjbRidk,30306,http://bradenfellman.com/,"931 Ponce De Leon Ave NE, Atlanta, GA 30306, USA",https://maps.google.com/?cid=15675290011230043770,(404) 876-6432
Copenhill Lofts & Condominiums,33.7681422,-84.3594431,ChIJmSSmrwQE9YgRJc3GqPNn3YE,30306,,"850 Ralph McGill Blvd NE, Atlanta, GA 30306, USA",https://maps.google.com/?cid=9357749896952073509,(404) 614-0543
AMLI Ponce Park,33.7706983,-84.3657346,ChIJN8-3fBAE9YgRJ1OXXmQYGLI,30306,http://www.amli.com/apartments/atlanta/downtown/atlanta/ponce-park,"641 North Avenue NE, Atlanta, GA 30308, USA",https://maps.google.com/?cid=12833033957555000103,(404) 267-0964
1315stillwood.com,33.7831389,-84.3442229,ChIJO1iL5pkG9YgRVQjpx4Yk_dE,30306,,"1315 Stillwood Dr NE, Atlanta, GA 30306, USA",https://maps.google.com/?cid=15131290484332890197,
755North,33.7705583,-84.3629256,ChIJQxHD-BoE9YgRHdFVTbiZRac,30306,http://www.755north.com/,"755 North Avenue NE, Atlanta, GA 30306, USA",https://maps.google.com/?cid=12053208994577502493,(404) 815-0777
Columbia Townhomes At Edgewood,33.7576805,-84.3409708,ChIJ_74EILMG9YgRd0NE9HI25qE,30307,http://www.columbiares.com/property/retreat-edgewood-townhomes,"150 Hutchinson St NE, Atlanta, GA 30307, USA",https://maps.google.com/?cid=11666071752102134647,(404) 577-9001
Virginia Highlands Apartments,33.7808632,-84.3664947,ChIJ1QsEPD0E9YgRmTzScyoNpGA,30307,http://www.virginiahighlandsapartments.com/,"609 Virginia Ave NE, Atlanta, GA 30306, USA",https://maps.google.com/?cid=6963705399804574873,(404) 874-5512
West Inman Lofts,33.7531661,-84.3668555,ChIJ3zEPIvcD9YgRnpT_agEqcAw,30307,http://www.westinmanwmp.com/,"626 Dekalb Ave, Atlanta, GA 30312, USA",https://maps.google.com/?cid=896262511425197214,(404) 688-1626
Edgewood Court Apartments,33.7556147,-84.3366541,ChIJ8b1fMEsB9YgRXNXYpO0hui0,30307,http://www.edgewoodcourtapts.com/,"1572 Hardee St NE, Atlanta, GA 30307, USA",https://maps.google.com/?cid=3294983381931578716,(404) 373-5378
North High Ridge Apartments,33.7713059,-84.3516723,ChIJEQS-AqcG9YgRkcq0HddB-RY,30307,http://northhighridge.com/,"1088 North Avenue NE #1, Atlanta, GA 30307, USA",https://maps.google.com/?cid=1655426730207529617,(404) 892-3133
Station Square Apartments,33.7571967,-84.3521464,ChIJeSkmSFUB9YgRJz1ToM8WTSk,30307,http://rjamesproperties.com/properties/station-square-apartments/nggallery/page/2/image/ss-2br,"1065 Seaboard Ave NE, Atlanta, GA 30307, USA",https://maps.google.com/?cid=2976060009765616935,(404) 523-6998
Reynoldstown Senior Residences,33.7517298,-84.3608815,ChIJg3g7YPkD9YgRNUcroPZaSgM,30307,http://www.mercyhousing.org/,"695 Field St SE, Atlanta, GA 30316, USA",https://maps.google.com/?cid=237101945686017845,(404) 975-4291
Mariposa Loft Apartments,33.760258,-84.361632,ChIJIyckqwcE9YgRU_fnuuvvG_s,30307,http://www.mariposawmp.com/,"100 Montag Cir, Atlanta, GA 30307, USA",https://maps.google.com/?cid=18094319723623216979,(678) 742-5190
Bass Lofts,33.7641723,-84.3520483,ChIJJ3YMCakG9YgRJ0uX3umnixw,30307,http://www.basslofts.com/,"1080 Euclid Ave NE, Atlanta, GA 30307, USA",https://maps.google.com/?cid=2056922277728439079,(844) 216-0903
Gables Residential,33.7947362,-84.305622,ChIJlao9vgYH9YgROgY1mJC-xPg,30307,http://gables.com/,"1386 Clairmont Rd, Decatur, GA 30033, USA",https://maps.google.com/?cid=17925661945079596602,(404) 486-0190
Inman Quarter Apartments,33.761965,-84.358633,ChIJLRdHWQEE9YgR1SyxHcCQNkY,30307,http://inmanquarter.com/,"299 North Highland Avenue Northeast, Atlanta, GA 30307, USA",https://maps.google.com/?cid=5059390386203602133,(404) 330-0686
N. Highland Steel Apartments,33.7628502,-84.3596291,ChIJlxVaAAQE9YgRgexgHt40h1Y,30307,,"240 North Highland Avenue Northeast, Atlanta, GA 30307, USA",https://maps.google.com/?cid=6235010337714793601,(678) 701-9054
Oak Pointe Apartments,33.767675,-84.341441,ChIJo-o2g7oG9YgRv42QXspOnk4,30307,http://bradenfellman.com/apartments/oakpointe/,"485 Oakdale Rd NE, Atlanta, GA 30307, USA",https://maps.google.com/?cid=5665052012355554751,(404) 688-6257
North Highland Steel Apartments & Shops,33.761912,-84.36021,ChIJR4ZfugYE9YgRzWTDLI6Bkac,30307,http://www.nhighlandsteel.com/,"240 North Highland Avenue Northeast, Atlanta, GA 30307, USA",https://maps.google.com/?cid=12074574523593352397,(844) 675-8578
Alexan on Krog Urban Apartments,33.7561718,-84.3647818,ChIJSdVz9fcD9YgR1OUCQJk173I,30307,http://www.alexanonkrog.com/,"112 Krog St NE, Atlanta, GA 30307, USA",https://maps.google.com/?cid=8281897172077831636,(404) 331-0620
Columbia Citi Homes,33.7579163,-84.3449236,ChIJTxOlP60G9YgRoKN8upka1CQ,30307,http://www.columbiares.com/,"165 Marion Pl NE, Atlanta, GA 30307, USA",https://maps.google.com/?cid=2653775327989113760,
Pendleton Apartments,33.758809,-84.355559,ChIJva5cRwAE9YgRQskabB7h4vk,30307,,"933 Euclid Ave NE, Atlanta, GA 30307, USA",https://maps.google.com/?cid=18006201780959627586,
Inman Village Townhomes,33.7598098,-84.3620299,ChIJwRPuqgcE9YgRUYFudjipesA,30307,,"200 Montag Cir, Atlanta, GA 30307, USA",https://maps.google.com/?cid=13869584062411080017,(404) 522-0996
Highland Glen,33.7658643,-84.3543775,ChIJZ9ACgwIE9YgR7wQ2sU-xGjM,30307,,"436 North Highland Avenue Northeast, Atlanta, GA 30307, USA",https://maps.google.com/?cid=3682450601162441967,
The Office Apartments,33.7615621,-84.3824349,ChIJ_cF78HYE9YgRr2YoF3KZcqc,30308,http://www.theofficeapts.com/,"250 Piedmont Ave NE, Atlanta, GA 30308, USA",https://maps.google.com/?cid=12065875066972825263,(404) 331-0830
Legacy Apartment Homes,33.7765729,-84.3848089,ChIJa5x-k2gE9YgRlqdEIazVujc,30308,,"800 Peachtree St NE, Atlanta, GA 30308, USA",https://maps.google.com/?cid=4015756953023457174,
Gardenwood Apartments LLC,33.7770416,-84.3870382,ChIJg6E4R2YE9YgR5rOOcMZ1qrU,30308,,"817 W Peachtree St NE, Atlanta, GA 30308, USA",https://maps.google.com/?cid=13090404762058142694,(404) 892-3405
Ford Factory Lofts,33.7729247,-84.3641512,ChIJmTtvphAE9YgRNEyufMuC8y4,30308,http://www.fordfactorylofts.com/,"699 Ponce De Leon Ave NE, Atlanta, GA 30308, USA",https://maps.google.com/?cid=3383191555567143988,(404) 874-5237
AMLI Old 4th Ward,33.7689802,-84.3663627,ChIJQfERKw4E9YgRat6hswPvgsA,30308,http://www.amli.com/apartments/atlanta/Downtown/Atlanta/old4thward,"525 Glen Iris Dr NE, Atlanta, GA 30308, USA",https://maps.google.com/?cid=13871912601432219242,(404) 267-4583
Townhouse Atlanta,33.765649,-84.382315,ChIJT188AHEE9YgRJfZv8WkdIB0,30308,http://townhouseatlanta.com/,"450 Piedmont Ave NE, Atlanta, GA 30308, USA",https://maps.google.com/?cid=2098709767214069285,(404) 892-1450
Mezzo Apartment Homes,33.8137278,-84.3919464,ChIJ37CkuqgF9YgRrUyMLVcOmZY,30309,http://www.mezzoapartmenthomes.com/,"2171 Peachtree St NW, Atlanta, GA 30309, USA",https://maps.google.com/?cid=10851720544715033773,(404) 479-7542
Windsor at Midtown,33.787016,-84.380719,ChIJB5SgA0QE9YgREjOFKgKGDAg,30309,http://www.windsoratmidtown.com/,"222 14th St NE, Atlanta, GA 30309, USA",https://maps.google.com/?cid=579985795885380370,(877) 897-6933
The Darlington,33.809701,-84.391496,ChIJbyhzTKkF9YgRvXc-LN357RQ,30309,http://www.thedarlingtonatlanta.com/,"2025 Peachtree St NE, Atlanta, GA 30309, USA",https://maps.google.com/?cid=1508136178564364221,(404) 351-5474
Camden Brookwood Apartments,33.802936,-84.397144,ChIJdddL5P8E9YgRGF4z_2cw4k0,30309,https://www.camdenliving.com/atlanta-ga-apartments/camden-brookwood,"147 26th St NW, Atlanta, GA 30309, USA",https://maps.google.com/?cid=5612101308878380568,(404) 541-0805
Post Parkside,33.7820375,-84.3795413,ChIJf-aCvkEE9YgRZrFffg2QJUg,30309,http://www.postproperties.com/GA/Atlanta/Midtown/Post-Parkside,"250 10th St NE, Atlanta, GA 30309, USA",https://maps.google.com/?cid=5198719732498280806,(404) 817-8030
Bryson Square at City Park,33.8035084,-84.4019275,ChIJHc0D7f0E9YgRPOvxvVKCL24,30309,http://www.brysonsquare.com/,"225 26th St NW, Atlanta, GA 30309, USA",https://maps.google.com/?cid=7939707959963151164,(404) 870-9709
100 Midtown Apartments,33.781227,-84.390101,ChIJiQ6H8l0E9YgRuNf8HKchVmQ,30309,http://100midtown.com/,"100 10th St NW, Atlanta, GA 30309, USA",https://maps.google.com/?cid=7230003253419497400,(404) 961-7130
1045 on the Park Apartment Homes,33.7830922,-84.3794088,ChIJOzubW68F9YgRwomNWOyuxrs,30309,http://www.1045onthepark.com/,"1045 Piedmont Ave NE, Atlanta, GA 30309, USA",https://maps.google.com/?cid=13530694460602419650,(404) 720-5784
"Atlanta Furnished Apartments, Corporate Apartments",33.7800426,-84.3838918,ChIJs1u-JGgE9YgRwq8ohAHSZDA,30309,http://www.executivecorporateliving.com/,"925B Peachtree St NE, Atlanta, GA 30309, USA",https://maps.google.com/?cid=3487142915445665730,(678) 208-0480
Peachtree Park Apartments,33.8136652,-84.3899331,ChIJvQGoW68F9YgRzrfgtkw_N7U,30309,http://www.peachtreeparkapartments.com/,"1000 Peachtree Park Dr NE, Atlanta, GA 30309, USA",https://maps.google.com/?cid=13057975243302287310,(404) 890-7234
Allure At Brookwood,33.8110733,-84.3894754,ChIJXRDx0a4F9YgRLKxk8qFcOHE,30309,http://allurebrookwood.maac.com/,"40 Peachtree Valley Rd NE, Atlanta, GA 30309, USA",https://maps.google.com/?cid=8158372575607827500,(404) 350-3033
Brookwood Valley,33.8099861,-84.3893605,ChIJ-yHZcakF9YgR96F6tNGnSBQ,30309,http://www.brookwoodvalley.com/,"2035 Peachtree Rd, Atlanta, GA 30309, USA",https://maps.google.com/?cid=1461602598199665143,(404) 352-1013
77 12th,33.784345,-84.384946,ChIJzYSEBUME9YgRT1yH2dSMRYg,30309,http://www.7712th.com/,"77 12th St NE, Atlanta, GA 30309, USA",https://maps.google.com/?cid=9819409408361716815,(404) 872-9080
Oakland City West End Apartments,33.7201656,-84.4261292,ChIJ37wfPCYD9YgRgH09YexReM4,30310,,"1191 Oakland Ln SW, Atlanta, GA 30310, USA",https://maps.google.com/?cid=14877731444703985024,(404) 753-1701
Venetian Hills Apartments,33.710813,-84.448446,ChIJ81x1VC8d9YgR_EgsnoeyZRQ,30310,http://venetianhills.webs.com/,"1829 Campbellton Rd SW, Atlanta, GA 30311, USA",https://maps.google.com/?cid=1469777148950366460,(404) 753-7558
Cascade Garden Apartments,33.7347973,-84.4374531,ChIJE8ZszzQD9YgRuMaM0lUhGNo,30310,,"763 Cascade Ave SW # 10, Atlanta, GA 30310, USA",https://maps.google.com/?cid=15715347552197723832,(404) 755-7368
Oakland Park Townhomes,33.7207941,-84.4272616,ChIJG-SHASYD9YgR9IacGeiSr1o,30310,,"1240 Oakland Dr SW, Atlanta, GA 30310, USA",https://maps.google.com/?cid=6534603109897635572,(404) 752-8937
Heritage Station Apartments,33.7335522,-84.4027629,ChIJGVmUfgwD9YgRXJwlxl8RtDU,30310,http://www.heritagestationatlanta.com/,"765 McDaniel St SW, Atlanta, GA 30310, USA",https://maps.google.com/?cid=3869737082862017628,(404) 588-5522
Donnelly Courts,33.733574,-84.428439,ChIJjaRLQzcD9YgRD3I8_Pfxsqg,30310,,"1250 Donnelly Ave SW, Atlanta, GA 30310, USA",https://maps.google.com/?cid=12156044391617425935,(404) 835-7247
One Source Atlanta Property Management,33.742981,-84.4376696,ChIJL5UwREsD9YgRlnnpCp5hNAg,30310,http://www.onesourceatlanta.com/,"1530 Ralph David Abernathy Blvd, Atlanta, GA 30310, USA",https://maps.google.com/?cid=591204782508177814,(678) 705-7877
Chateau Chennault,33.7582693,-84.418024,ChIJlQUew18D9YgRVgBMuvrODlc,30310,,"936 Mayson Turner Rd NW, Atlanta, GA 30314, Atlanta, GA 30314, USA",https://maps.google.com/?cid=6273178907236368470,
Caribu Apartments,33.6999141,-84.4196579,ChIJm9S-NcIC9YgRoeRuRGfxZnk,30310,,"2001 Sylvan Rd SW, Atlanta, GA 30310, USA",https://maps.google.com/?cid=8747944752045810849,(404) 755-8521
Ashley West End,33.7350201,-84.4149199,ChIJMbPgAxUD9YgRY0oBtjIXjKo,30310,http://www.ashleywestend.com/,"717 Lee St SW, Atlanta, GA 30310, USA",https://maps.google.com/?cid=12289222989756582499,(877) 741-5933
Ashby Park Apartments,33.7622712,-84.4167744,ChIJpUlMgZ8E9YgRLHp5RI1UzsI,30310,,"880 Rock St NW, Atlanta, GA 30314, USA",https://maps.google.com/?cid=14037250054276348460,(404) 221-9055
Capitol View Apartments,33.722367,-84.408232,ChIJtbinFxsD9YgRtVVGnQNuki0,30310,,"1191 Metropolitan Pkwy SW # 6, Atlanta, GA 30310, USA",https://maps.google.com/?cid=3283808040109102517,(404) 753-5000
Donnelly Gardens Apartments,33.734087,-84.428478,ChIJv-RxCTcD9YgRnbU6oJ6kw6s,30310,http://rjamesproperties.com/properties/donnellygardens/,"1295 Donnelly Ave SW, Atlanta, GA 30310, USA",https://maps.google.com/?cid=12376917202144245149,(404) 755-6142
Ashley Collegetown Apartments,33.745048,-84.417841,ChIJZ9eqdkID9YgRZfBqVB-7UNI,30310,http://www.ashleycollegetown.com/contact.php,"387 Joseph E Lowery Blvd SW, Atlanta, GA 30310, USA",https://maps.google.com/?cid=15154818489336393829,(844) 711-3987
Veranda At Collegetown,33.7438866,-84.4189799,ChIJZy2NN0ID9YgRH5vH5OO23Es,30310,http://www.integral-online.com/,"372 Legacy Dr SW, Atlanta, GA 30310, USA",https://maps.google.com/?cid=5466445137633057567,(404) 756-3018
1890 Adams House Apartments,33.7034365,-84.462633,ChIJ0Qj2HRcd9YgRB5Zhc_czQc4,30311,http://www.adamshouseapartments.com/,"2280 Campbellton Road, Atlanta, GA 30311, USA",https://maps.google.com/?cid=14862217383185061383,(404) 346-0550
Abbey Ridge Apartments,33.750373,-84.489284,ChIJ1-1JOGUc9YgRgYkC-f2nKnA,30311,,"3136 M.L.K. Jr Dr NW, Atlanta, GA 30311, USA",https://maps.google.com/?cid=8082457190516033921,(404) 691-3963
Harmony Plaza 1 Apartments,33.7038745,-84.4532502,ChIJ1a3rvTsd9YgRBoN-LCWKoZs,30311,http://rjamesproperties.com/properties/plaza1/,"1871 Plaza Ln SW, Atlanta, GA 30311, USA",https://maps.google.com/?cid=11214396439394157318,(404) 755-6445
Dogwood Apartments,33.7503311,-84.4691564,ChIJ1V3fDpAc9YgRs5o8tpFfPU0,30311,,"95 Peyton Rd SW, Atlanta, GA 30311, USA",https://maps.google.com/?cid=5565709793932122803,(404) 696-2602
Appletree Townhouses,33.7036876,-84.4642868,ChIJ2eRb1BYd9YgRYdB0X8WtL04,30311,,"2328 Campbellton Rd SW, Atlanta, GA 30311, USA",https://maps.google.com/?cid=5633912722085433441,(404) 349-7988
Regal Heights Apartments,33.702548,-84.474784,ChIJ35uhTAkd9YgRDXHpgVU9E34,30311,http://rjamesproperties.com/properties/regal-heights-apartments/,"2640 Campbellton Rd SW, Atlanta, GA 30311, USA",https://maps.google.com/?cid=9084672310797496589,(404) 349-0877
Allen Hills Apartments,33.7539529,-84.488788,ChIJ8X4uAHAc9YgRIzTJsUr6lkM,30311,,"3086 Middleton Rd NW, Atlanta, GA 30311, USA",https://maps.google.com/?cid=4870355245765047331,(404) 505-1790
Towne West Manor- Atlanta,33.747247,-84.496806,ChIJ8YCzD2wc9YgRLwcNQSZMkl0,30311,http://www.townewestmanor.com/,"330 Brownlee Rd SW, Atlanta, GA 30311, USA",https://maps.google.com/?cid=6742535319310894895,(404) 699-7178
Deerfield Gardens,33.6992836,-84.4846956,ChIJ9boAKqEd9YgR0RoLw48i-aQ,30311,http://www.deerfieldgardens.com/,"2909 Campbellton Rd SW, Atlanta, GA 30311, USA",https://maps.google.com/?cid=11887570692269087441,(404) 344-6080
Hidden Village Apartments,33.7080352,-84.487465,ChIJBRQCZq8d9YgRGmPBKsRD4-M,30311,http://www.hiddenvillageatlanta.com/,"3041 Landrum Dr SW, Atlanta, GA 30311, USA",https://maps.google.com/?cid=16421043176132928282,(404) 349-9440
Aspen Courts,33.7099603,-84.4443291,ChIJCcnLsC4d9YgRI3UQKBiE0fs,30311,,"1631 Stanton Rd SW, Atlanta, GA 30311, USA",https://maps.google.com/?cid=18145429612938687779,(404) 767-0297
Park Commons Apartments,33.7501408,-84.4733739,ChIJdfUCbI8c9YgRFabF1Nc2Rrs,30311,,"150 Peyton Pl SW, Atlanta, GA 30311, USA",https://maps.google.com/?cid=13494533634077861397,
Sierra Ridge,33.754904,-84.4864907,ChIJE5ucg3sc9YgRr_fivYDE7po,30311,http://www.sierraridgeatlanta.com/,"3020 Delmar Ln NW, Atlanta, GA 30311, USA",https://maps.google.com/?cid=11164076583518664623,(404) 500-4692
Brentwood Creek,33.700815,-84.450652,ChIJgQQN0zsd9YgRdx3W44xAI44,30311,http://www.brentwoodcreekapartments.com/,"1935 Alison Ct SW, Atlanta, GA 30311, USA",https://maps.google.com/?cid=10242100951432699255,(404) 768-6344
Shamrock Gardens Apartments,33.7064144,-84.4533652,ChIJhR7wqTwd9YgRZ140jE4Fzrg,30311,http://www.shamrockatl.com/,"1988 Plaza Ln SW #43, Atlanta, GA 30311, USA",https://maps.google.com/?cid=13316586983098965607,(404) 758-7190
Columbia Commons Apartments,33.7514975,-84.4705313,ChIJMbts-I8c9YgRiscBgpAax4E,30311,http://www.columbiares.com/property/columbia-commons,"2524 M.L.K. Jr Dr NW, Atlanta, GA 30311, USA",https://maps.google.com/?cid=9351472359216891786,(404) 699-7597
Eagles Nest Apartments,33.7054805,-84.48326,ChIJNUn5wqYd9YgR8Me8Q1J7SXM,30311,,"2900 Landrum Dr SW, Atlanta, GA 30311, USA",https://maps.google.com/?cid=8307306580915570672,(404) 349-7454
QLS Haven Apartments,33.7079834,-84.4481578,ChIJqTSAZS8d9YgRCX8su5AklCU,30311,http://www.qualitylivingservices.org/index.php?option=com_content&task=view&id=15&Itemid=28,"1840 Campbellton Rd SW, Atlanta, GA 30311, USA",https://maps.google.com/?cid=2707829479990656777,(404) 762-0934
Centra Villa Apartments,33.7079994,-84.4560741,ChIJr9gKrCMd9YgRAirSCWlWbYM,30311,http://rjamesproperties.com/properties/centra-villa-apartments/,"1717 Centra Villa Dr SW, Atlanta, GA 30311, USA",https://maps.google.com/?cid=9470320600566344194,(404) 753-2888
AMLI Parkside,33.7656628,-84.3655264,ChIJbaWsEg8E9YgRuOrQwvFLRHg,30312,http://www.amli.com/apartments/atlanta/Downtown/Atlanta/parkside,"660 Ralph McGill Blvd NE, Atlanta, GA 30312, USA",https://maps.google.com/?cid=8666135084695349944,(404) 267-0968
Pencil Factory Flats & Shops,33.749726,-84.37801,ChIJBfK5TIwD9YgR2hsrinRNmGU,30312,http://www.pencilatl.com/,"349 Decatur St SE, Atlanta, GA 30312, USA",https://maps.google.com/?cid=7320686357220367322,(844) 723-4404
Henderson Place,33.757889,-84.3704951,ChIJbVv0CQoE9YgRL3YaVYx85ds,30312,http://hendersonpl.vsites.com/home,"520 Irwin St NE, Atlanta, GA 30312, USA",https://maps.google.com/?cid=15845207806138021423,(404) 589-1374
Camden Vantage Apartments,33.7583827,-84.374713,ChIJE-SougoE9YgRYW_BhuDXiUE,30312,https://www.camdenliving.com/atlanta-ga-apartments/camden-vantage,"180 Jackson St NE, Atlanta, GA 30312, USA",https://maps.google.com/?cid=4722543043608145761,(404) 221-0360
Mechanicsville Station,33.7405823,-84.4047843,ChIJeZUORXID9YgRSXwn5CHr6MM,30312,http://www.mechanicsvilleliving.com/mechanicsville-station/,"520 Fulton St SW, Atlanta, GA 30312, USA",https://maps.google.com/?cid=14116791562787060809,(404) 584-6600
Block Lofts,33.7662966,-84.3625009,ChIJfwKa-AQE9YgRs7NInEFdM7I,30312,http://www.blockloftsapartments.com/,"747 Ralph McGill Blvd NE, Atlanta, GA 30312, USA",https://maps.google.com/?cid=12840709498939683763,(404) 907-2374
GE Tower Loft Apartments,33.7378293,-84.4038414,ChIJGZzOPHMD9YgRRsD7WNa6dzc,30312,http://www.getower.com/,"490 Glenn St SW, Atlanta, GA 30312, USA",https://maps.google.com/?cid=3996868624093265990,(404) 653-0988
The Burnett At Grant Park,33.729917,-84.364259,ChIJiVKdrtwD9YgR02fPn41Jgxg,30312,http://www.burnettgrantpark.com/,"880 Confederate Ave SE, Atlanta, GA 30312, USA",https://maps.google.com/?cid=1766336351479752659,(404) 635-1234
Highland Walk Apartments,33.7612187,-84.3646372,ChIJr_gumggE9YgRVrWdLVAXi9g,30312,http://highlandwalk.com/,"701 Highland Ave NE, Atlanta, GA 30312, USA",https://maps.google.com/?cid=15603590967085348182,(404) 526-9555
Auburn Glenn Apartments,33.7529404,-84.3718154,ChIJR6o3b_QD9YgROF6izpdeCzE,30312,http://www.auburnglenn.com/,"49 Boulevard SE, Atlanta, GA 30312, USA",https://maps.google.com/?cid=3534022338702106168,(404) 584-1300
Trestletree Village,33.7285695,-84.3622785,ChIJr9X9dtsD9YgRGl0p7h-a5Mw,30312,,"904 Confederate Ct SE, Atlanta, GA 30312, USA",https://maps.google.com/?cid=14764094940357680410,(404) 622-7674
The Leonard,33.7466117,-84.377524,ChIJszQjg5ID9YgRyW6K18DbBbM,30312,http://www.theleonardatl.com/,"301 Memorial Dr SE, Atlanta, GA 30312, USA",https://maps.google.com/?cid=12899958328969031369,(404) 335-0058
Mattress Factory Lofts,33.7481796,-84.3778592,ChIJw-S7o40D9YgRUUoOqLYydEs,30312,http://bradenfellman.com/apartments/mattressfactory/directions/,"300 M.L.K. Jr Dr SE, Atlanta, GA 30312, USA",https://maps.google.com/?cid=5437026410227976785,(404) 659-7988
Techwood Homes Historic District,33.7677758,-84.3916683,ChIJ2-fQNmME9YgRHu3jBs04vrA,30313,http://www.artery.org/Techwood.htm,"Atlanta, GA 30313, USA",https://maps.google.com/?cid=12735679249485393182,
935M Apartments,33.7776745,-84.4086473,ChIJc1yhSJIE9YgR61IenOfKnlI,30313,http://www.935m.com/,"935 Marietta St, Atlanta, GA 30318, USA",https://maps.google.com/?cid=5953418853535863531,(404) 876-9356
Northside Plaza Apartments,33.7526485,-84.4022743,ChIJkxaP8nsD9YgRBgG6AMX6KUs,30313,,"440 Markham St SW, Atlanta, GA 30313, USA",https://maps.google.com/?cid=5416135750917423366,(404) 688-9019
Centennial Park North,33.7690609,-84.3921855,ChIJNdVdtnwE9YgR17ClRtg6fHM,30313,,"536 Centennial Olympic Park Dr NW, Atlanta, GA 30313, USA",https://maps.google.com/?cid=8321590912046444759,(404) 881-9614
Friendship Tower Apartments,33.7535567,-84.4031928,ChIJt_1SdHwD9YgR-yBIknzDDk8,30313,,"35 Northside Dr SW, Atlanta, GA 30313, USA",https://maps.google.com/?cid=5696705518467817723,(404) 681-2873
M Street,33.7769506,-84.40847,ChIJu-ozPJIE9YgR___IeLF2WNg,30313,http://www.mstreetatlanta.com/,"950 Marietta St, Atlanta, GA 30318, USA",https://maps.google.com/?cid=15589340614750699519,(844) 233-1701
Faith Hill Apartments,33.7632747,-84.4544304,ChIJ8S4jLl8b9YgRPHcKP17WJuA,30314,,"2046 Joseph E. Boone Blvd NW, Atlanta, GA 30314, USA",https://maps.google.com/?cid=16151832813883782972,(404) 799-2634
Westmar Student Lofts,33.7781372,-84.4123436,ChIJ9e54GZUE9YgRsWL-CBvlj98,30314,http://westmarlofts.com/,"800 West Marietta St NW, Atlanta, GA 30318, USA",https://maps.google.com/?cid=16109346296405320369,(404) 602-0717
Berean Village,33.748697,-84.4337699,ChIJb1_e700D9YgRnqW7aU6Fcfo,30314,,"230 Westview Pl SW, Atlanta, GA 30314, USA",https://maps.google.com/?cid=18046351753678136734,
CAU Suites,33.7515209,-84.4116919,ChIJe2Ds1WUD9YgRJz4UPQOCxps,30314,http://www.causuites.com/,"128 Mildred St SW, Atlanta, GA 30314, USA",https://maps.google.com/?cid=11224802071688789543,(404) 880-8690
Heritage Commons,33.753894,-84.412995,ChIJj5Q_Q2ED9YgRm3Sfj30Deh0,30314,http://www.heritagecommonscau.com/,"15 James P Brawley Dr SW, Atlanta, GA 30314, USA",https://maps.google.com/?cid=2124014012073997467,(404) 688-4573
Making A Way Housing,33.7641243,-84.4494838,ChIJLYiPLVgb9YgRFXhE9sQrWdw,30314,http://www.makingawayhousing.org/,"1905 Joseph E. Boone Blvd NW, Atlanta, GA 30314, USA",https://maps.google.com/?cid=15877770086216661013,(404) 794-3052
Azalea Gardens Apartments,33.7638588,-84.4235744,ChIJp8fwwKYE9YgRCNvtA8b_4Pg,30314,,"324 Archer Way NW, Atlanta, GA 30314, USA",https://maps.google.com/?cid=17933614942123842312,(404) 584-6101
"Opportunity & Carbo Properties, LLC.",33.763926,-84.4286912,ChIJT4zvjKgE9YgREDI_IHVATHs,30314,http://www.opportunityproperties.net/,"1247 Joseph E. Boone Blvd NW #47, Atlanta, GA 30314, USA",https://maps.google.com/?cid=8884547036691509776,(404) 755-9300
Ferdows Gardens,33.757965,-84.419744,ChIJYcetp18D9YgR14ntktuLfI8,30314,http://www.liliproperties.com/,"961 Desoto St NW, Atlanta, GA 30314, USA",https://maps.google.com/?cid=10339292619714955735,(404) 665-6400
Collier Heights Apartments,33.7649422,-84.4577435,ChIJz_d-Nl4b9YgRAMn03UusdIE,30314,,"2125 Joseph E. Boone Blvd NW, Atlanta, GA 30314, USA",https://maps.google.com/?cid=9328270170037471488,(404) 792-0679
Capitol Vanira Apartments,33.7288258,-84.3870484,ChIJ05x3waQD9YgRBCtKMPQ2hbU,30315,,"942 Hank Aaron Dr SE, Atlanta, GA 30315, USA",https://maps.google.com/?cid=13079921115177560836,(404) 586-0068
Columbia Blackshear,33.7115113,-84.3831334,ChIJact0qlMC9YgRfjodAPwQklY,30315,http://www.columbiares.com/property/columbia-blackshear-senior-residences,"14 Meldon Ave SE, Atlanta, GA 30315, USA",https://maps.google.com/?cid=6238067108381276798,(404) 525-0558
Forest Cove Apartments,33.7082324,-84.3597548,ChIJCx4QdCwC9YgRX71xvlRz6f8,30315,,"900 New Town Cir SE, Atlanta, GA 30315, USA",https://maps.google.com/?cid=18440396957054778719,(404) 622-1074
Brookside Park Apartments,33.701008,-84.406268,ChIJg4HcGe4C9YgRj2tYmxB_KmA,30315,http://www.brooksideparkatlapts.com/,"565 St Johns Ave SW, Atlanta, GA 30315, USA",https://maps.google.com/?cid=6929490685965396879,(855) 980-6829
Villas at Lakewood,33.708122,-84.399416,ChIJP4WQLPkC9YgRaGO9iqKTmmE,30315,http://www.thevillasatlakewoodga.com/,"1700 Giben Rd SW, Atlanta, GA 30315, USA",https://maps.google.com/?cid=7033096094414103400,(888) 716-2101
Manor III Apartments,33.713893,-84.398239,ChIJpxSD0P8C9YgR5aRNn1wo6JI,30315,http://www.cflane.com/id/1778/manor-iii-apartments-atlanta-ga-30315,"1483 Arthur B. Langford Jr. Pkwy, Atlanta, GA 30315, USA",https://maps.google.com/?cid=10585755302409118949,(404) 500-1691
Constitution Avenue Apartments LP,33.6942949,-84.357109,ChIJR3I5HyEC9YgRTpJsa9TDRe4,30315,,"960 Constitution Rd SE, Atlanta, GA 30315, USA",https://maps.google.com/?cid=17169344471522644558,
The Square at Peoplestown,33.7309872,-84.3888121,ChIJS9k1gqQD9YgRONT6hs8mWGY,30315,,"875 Hank Aaron Dr SW, Atlanta, GA 30315, USA",https://maps.google.com/?cid=7374687062583858232,(844) 704-3261
The Station at Richmond Hill Apartments,33.7059629,-84.37441,ChIJXVPcPTYC9YgRj5XQAwOz2Fw,30315,http://www.richmondoaksapts.com/,"1770 Richmond Cir SE, Atlanta, GA 30315, USA",https://maps.google.com/?cid=6690294071989147023,(404) 627-6302
