OBJECTID,Apartment_Name,Latitude,Longitude,Place_ID,Zip,Website,Address,City,Zip,Map,Phone,Block_Group,Jobs,Retail,Rent,,
644,@1377,33.860196,-84.333582,ChIJpdH0jL0I9YgRomIhQRghUC0,30319,http://www.liveat1377.com/,1377 Dresden Drive, Brookhaven, GA 30319,https://maps.google.com/?cid=3265146117899248290,(404) 949-5555,1.31E+11,3.75247,6125.40528,1508.76001,,
730,10 Perimeter Park Apartments,33.918275,-84.294549,ChIJqyJxEpMJ9YgRr5Zhfd1FzmI,30341,http://www.living10perimeterpark.com/,10 Perimeter Park Dr, Atlanta, GA 30341,https://maps.google.com/?cid=7119704878512969391,(770) 458-1001,1.31E+11,2.13109,5287.40936,1415.359985,,
366,100 Midtown Apartments,33.781227,-84.390101,ChIJiQ6H8l0E9YgRuNf8HKchVmQ,30309,http://100midtown.com/,100 10th St NW, Atlanta, GA 30309,https://maps.google.com/?cid=7230003253419497400,(404) 961-7130,1.31E+11,42.85449,5811.40027,2247.26001,,
361,1016 Lofts,33.782327,-84.411841,ChIJzZZ5puwE9YgRqWu1ZN3rYeI,30318,http://www.1016lofts.com/,1016 Howell Mill Rd, Atlanta, GA 30318,https://maps.google.com/?cid=16312578661422558121,(404) 815-8877,1.31E+11,5.33977,5238.39996,1070.040039,,
383,1045 on the Park Apartment Homes,33.783092,-84.379409,ChIJOzubW68F9YgRwomNWOyuxrs,30309,http://www.1045onthepark.com/,1045 Piedmont Ave NE, Atlanta, GA 30309,https://maps.google.com/?cid=13530694460602419650,(404) 720-5784,1.31E+11,32.82187,6016.40065,1562.170044,,
661,1105 Town Brookhaven Apartments,33.871128,-84.338175,ChIJXf6R4sAI9YgRo1YcKwm_oaE,30319,http://www.1105townbrookhaven-apts.com/,1105 Town Blvd, Atlanta, GA 30319,https://maps.google.com/?cid=11646800157455701667,(404) 816-7333,1.31E+11,0.97328,4605.4061,1706.390015,,
392,1122 Crescent Place,33.785346,-84.384571,ChIJ_5DkQkME9YgRMlYMdsZqQE4,30357,http://www.rampartnersllc.com/atlanta-fl-apartments/1122-crescent-place-apartments/photos/,1122 Crescent Ave NE, Atlanta, GA 30309,https://maps.google.com/?cid=5638624134084449842,(678) 553-2822,1.31E+11,34.69863,6089.40072,1979.680054,,
723,1160 Hammond,33.919488,-84.348967,ChIJ3wcPIEwJ9YgRv39Ll4NUFew,30346,http://www.1160hammond.com/,1600 Hammond Dr, Sandy Springs, GA 30328,https://maps.google.com/?cid=17011596091617673151,(866) 347-9434,1.31E+11,16.69995,7992.40739,2385.689941,,
724,1160 Hammond Apartments,33.91946,-84.348353,ChIJkQOvpE4J9YgRVR5zS5M212A,30328,http://www.1160hammond.com/,1160 Hammond Dr NE, Sandy Springs, GA 30328,https://maps.google.com/?cid=6978106153887800917,(770) 766-5537,1.31E+11,16.69995,7992.40739,2385.689941,,
411,1280 West,33.789779,-84.387948,ChIJkTO--VoE9YgRIErGfY5pnDY,30357,http://1280west.com,1280 West Peachtree St NW #210, Atlanta, GA 30309,https://maps.google.com/?cid=3935136235131390496,(678) 999-0914,1.31E+11,19.94391,5608.4006,1515.880005,,
390,12th Street West Apartment Homes,33.784953,-84.385701,ChIJ_1HFSkME9YgRA1Jk2QZfwdQ,30357,http://12stw.com/,60 12th Street, Atlanta, GA 30309,https://maps.google.com/?cid=15330639089567552003,(404) 874-8481,1.31E+11,34.69863,6089.40072,1979.680054,,
327,131 Ponce de Leon,33.771828,-84.38265,ChIJD0Z-VG4E9YgRaEh0O7-_CGg,30332,http://www.live131ponce.com/,131 Ponce De Leon Ave NE, Atlanta, GA 30308,https://maps.google.com/?cid=7496452407815325800,(855) 766-2313,1.31E+11,31.05983,5928.40027,1376.790039,,
402,1315stillwood.com,33.783139,-84.344223,ChIJO1iL5pkG9YgRVQjpx4Yk_dE,30306, ,1315 Stillwood Dr NE, Atlanta, GA 30306,https://maps.google.com/?cid=15131290484332890197, ,1.31E+11,1.56315,4383.4021,2380.5,,
573,1500 Oak Apartments,33.822298,-84.231156,ChIJcTTgrGOo9YgR31qyG8hBk7M,30021,http://www.1500oak.com/,1500 Post Oak Dr, Clarkston, GA 30021,https://maps.google.com/?cid=12939758482079505119,(678) 554-4542,1.31E+11,0.34754,2890.40795,834.724976,,
428,1660 Peachtree,33.797441,-84.391599,ChIJc4omr1YE9YgRtTfIlRIZ5H0,30363,http://www.1660peachtree.com/,1660 Peachtree St NW, Atlanta, GA 30309,https://maps.google.com/?cid=9071403117044053941,(404) 287-1660,1.31E+11,19.94391,5608.4006,1515.880005,,
417,17th Street Lofts and ATLofts,33.792165,-84.396859,ChIJoWA6-PcE9YgRSTg2QoMPHa0,30363,http://www.cflane.com/id/753/the-lofts-at-atlantic-station-atlanta-ga-30363,260 18th St NW, Atlanta, GA 30363,https://maps.google.com/?cid=12474143599312123977,(404) 815-0224,1.31E+11,19.94391,5608.4006,1515.880005,,
418,17th Street Lofts and ATLofts,33.792301,-84.396856,ChIJm-KmAvgE9YgReNDsoxuduOs,30363,http://www.cflane.com/id/753/the-lofts-at-atlantic-station-atlanta-ga-30363,260 18th St NW, Atlanta, GA 30363,https://maps.google.com/?cid=16985498736667709560,(404) 815-0224,1.31E+11,19.94391,5608.4006,1515.880005,,
89,1890 Adams House Apartments,33.703437,-84.462633,ChIJ0Qj2HRcd9YgRB5Zhc_czQc4,30311,http://www.adamshouseapartments.com/,2280 Campbellton Road, Atlanta, GA 30311,https://maps.google.com/?cid=14862217383185061383,(404) 346-0550,1.31E+11,0.60626,1878.39435,550.883972,,
119,1904 Mary Lou Ln SE,33.702903,-84.312314,ChIJY_CjzawB9YgRCUuLSMIpSds,30316, ,Mary Lou Ln SE, Atlanta, GA 30316,https://maps.google.com/?cid=15801206682023578377, ,1.31E+11,0.26665,2149.39988,944.989014,,
323,251 North Apartment Homes,33.77025,-84.378153,ChIJ1yj7vW0E9YgRtbwUb-PwJTY,30332,http://www.251northapartments.com/,300 Cityline Ave NE, Atlanta, GA 30308,https://maps.google.com/?cid=3901789511798275253,(404) 881-6699,1.31E+11,33.37999,6006.40015,1390.290039,,
517,3131 Apartments - Decatur,33.812238,-84.304499,ChIJTbb0pbEH9YgR2kAihVjDDKo,30322,http://www.3131apartments.com/,3131 N Druid Hills Rd, Decatur, GA 30033,https://maps.google.com/?cid=12253383471126429914,(678) 554-4537,1.31E+11,7.14707,4402.40458,1661.660034,,
599,32 Hundred Lenox Apartments,33.843827,-84.358936,ChIJC9bIKP8F9YgRNoJ0K-lXbyA,30324,http://www.bellapartmentliving.com/ga/atlanta/32-hundred-lenox/,3200 Lenox Rd NE, Atlanta, GA 30324,https://maps.google.com/?cid=2337183390596629046,(404) 261-3037,1.31E+11,2.87044,10279.40364,1622.650024,,
137,37 Treeview Apartment,33.696244,-84.157344,ChIJ2VoUGPGs9YgRLfmx5k-i_8I,30038,http://www.37treeview.com/contact_us/,37 Tree View Dr, Lithonia, GA 30038,https://maps.google.com/?cid=14051127826475776301,(770) 981-6020,1.31E+11,0.20718,1636.40521,805.659973,,
633,3833 Peachtree Apartments,33.857136,-84.34626,ChIJzZVAM7AI9YgRgtZXfzX5wrg,30319,http://www.3833peachtree.com/,3833 Peachtree Rd, Brookhaven, GA 30319,https://maps.google.com/?cid=13313477456625653378,(404) 237-5320,1.31E+11,2.59006,7087.40522,1615.569946,,
432,500 Northside,33.799589,-84.402466,ChIJDZ38e_sE9YgR0QH7dFkEEvo,30363,http://www.livewell500northside.com/,500 Northside Cir NW, Atlanta, GA 30309,https://maps.google.com/?cid=18019469841323983313,(404) 351-7133,1.31E+11,7.94852,5354.40053,983.565979,,
761,550 Abernathy Apartments,33.938476,-84.368508,ChIJVX5g0Mbdw4kRNe8XnaaMvq8,30328,http://www.hgliving.com/550-abernathy-atlanta-ga,550 Abernathy Rd NE, Atlanta, GA 30328,https://maps.google.com/?cid=12663713849440464693,(404) 256-9888,1.31E+11,7.79826,5262.4076,1760.660034,,
827,555 Mansell Apartments,34.042682,-84.33911,ChIJiTrSJLx09YgRmfiUkoHazmU,30075,http://www.555mansell.com/,555 Eagles Crest Village Ln, Roswell, GA 30076,https://maps.google.com/?cid=7336041093077989529,(770) 998-9103,1.31E+11,7.49174,4729.41333,1768.089966,,
330,755North,33.770558,-84.362926,ChIJQxHD-BoE9YgRHdFVTbiZRac,30306,http://www.755north.com/,755 North Avenue NE, Atlanta, GA 30306,https://maps.google.com/?cid=12053208994577502493,(404) 815-0777,1.31E+11,4.03052,5458.40089,1906.23999,,
386,77 12th,33.784345,-84.384946,ChIJzYSEBUME9YgRT1yH2dSMRYg,30309,http://www.7712th.com/,77 12th St NE, Atlanta, GA 30309,https://maps.google.com/?cid=9819409408361716815,(404) 872-9080,1.31E+11,32.82187,6016.40065,1562.170044,,
591,92 West Paces,33.840581,-84.382925,ChIJ6evD3o4F9YgRguQGGmvIepQ,30355,http://92westpaces.com/buckhead-apartments/,92 West Paces Ferry Rd NW, Atlanta, GA 30305,https://maps.google.com/?cid=10699084227095749762,(404) 504-9292,1.31E+11,10.12734,7957.40289,790.195007,,
340,935M Apartments,33.777675,-84.408647,ChIJc1yhSJIE9YgR61IenOfKnlI,30313,http://www.935m.com/,935 Marietta St, Atlanta, GA 30318,https://maps.google.com/?cid=5953418853535863531,(404) 876-9356,1.31E+11,14.46451,4430.39942,1144.939941,,
656,93East Apartments,33.864071,-84.286215,ChIJY36REhYI9YgR_MQqWc8s14E,30345,http://www.live93east.com/,2565 Shallowford Rd, Atlanta, GA 30345,https://maps.google.com/?cid=9355996019951322364,(404) 633-0993,1.31E+11,2.0054,3545.40794,937.710999,,
204,Abbey Ridge Apartments,33.750373,-84.489284,ChIJ1-1JOGUc9YgRgYkC-f2nKnA,30311, ,3136 M.L.K. Jr Dr NW, Atlanta, GA 30311,https://maps.google.com/?cid=8082457190516033921,(404) 691-3963,1.31E+11,0.41809,1733.39521,519.195984,,
359,Above Atlanta Realtors,33.778353,-84.384779,ChIJ2RezYGgE9YgRjvvjTRTgoVM,30357,http://www.aboveatlanta.com/,860 Peachtree St NE, Atlanta, GA 30308,https://maps.google.com/?cid=6026344154209188750,(404) 645-7777,1.31E+11,37.02319,5914.40034,2004.089966,,
353,Adair Oaks Apartments,33.769708,-84.307315,ChIJM7MKJiQH9YgRJsNBMBAdXJ4,30030,http://www.visionpropertiesinc.com/apartments.htm#AdairAnchor,212 Adair St A3, Decatur, GA 30030,https://maps.google.com/?cid=11411027511216292646,(404) 373-4368,1.31E+11,10.35162,3207.40278,722.023987,,
843,Addison Place,34.063367,-84.20881,ChIJlRLzA-Ge9YgROEVJS7PLTKw,30005,http://www.addisonapts.com/,5100 Abbotts Bridge Rd, Alpharetta, GA 30005,https://maps.google.com/?cid=12415522243676292408,(678) 393-2722,1.31E+11,0.63093,1939.41941,2389.110107,,
578,Advantage Corporate Apartments,33.842775,-84.426199,ChIJ09drPFoF9YgRm8EhOiNNsV8,30325,http://www.advantageapartments.com/,3280 Northside Pkwy NW, Atlanta, GA 30327,https://maps.google.com/?cid=6895377318175424923,(678) 705-5744,1.31E+11,3.35853,3423.40146,1276.170044,,
314,Advantage Corporation Apartments,33.769105,-84.382279,ChIJE-xewnEE9YgR4cwBzKD4qBo,30332,http://www.advantageapartments.com/,530 Piedmont Ave NE, Atlanta, GA 30308,https://maps.google.com/?cid=1921058610574642401,(404) 748-1971,1.31E+11,67.59656,6027.39978,1482.01001,,
406,Advantage Corporation Apartments,33.787016,-84.380719,ChIJjzSdA0QE9YgR8PHIr1MBpkk,30361,http://www.advantageapartments.com/index.asp,222 14th St NE, Atlanta, GA 30309,https://maps.google.com/?cid=5306930669845803504,(866) 282-2503,1.31E+11,28.12491,6089.40093,2093.879883,,
828,ALARA North Point Apartments,34.044536,-84.285738,ChIJozDXFmp19YgRLWYW9HVVxPU,30009,http://www.alaranorthpoint.com/,900 Jameson Pass, Alpharetta, GA 30022,https://maps.google.com/?cid=17709373599822276141,(770) 772-3031,1.31E+11,5.37983,4776.4154,1452.51001,,
396,Alexan 1133 Apartments,33.777423,-84.298077,ChIJIckZFRYH9YgRag7I20JEdB4,30030,http://alexan1133.com/,1133 Commerce Dr, Decatur, GA 30030,https://maps.google.com/?cid=2194453972382125674,(404) 371-6999,1.31E+11,17.59441,3491.40318,173.667007,,
606,Alexan Lenox,33.846885,-84.35617,ChIJCWk2bFUP9YgR4iC3X9o6T5Q,30326,http://alexanlenox.com/,960 East Paces Ferry Rd NE, Atlanta, GA 30326,https://maps.google.com/?cid=10686825150356594914,(404) 869-6580,1.31E+11,30.61395,9954.40437,2913.969971,,
272,Alexan on Krog Urban Apartments,33.756172,-84.364782,ChIJSdVz9fcD9YgR1OUCQJk173I,30307,http://www.alexanonkrog.com/,112 Krog St NE, Atlanta, GA 30307,https://maps.google.com/?cid=8281897172077831636,(404) 331-0620,1.31E+11,2.6469,5303.40037,1848.839966,,
439,Alexander at Stonecrest Apartments,33.768635,-84.079056,ChIJWwajkr-x9YgRqaaIZraLxgg,30058,http://www.alexanderatstonecrest.com/,100 Leslie Oaks Dr, Lithonia, GA 30058,https://maps.google.com/?cid=632346413212673705,(770) 482-7759,1.31E+11,0.09206,1108.41082,1406.939941,,
435,Alexander at the District,33.801491,-84.411638,ChIJy-ldzOME9YgRGcswdOUrFhg,30318,http://www.alexanderatthedistrict.com/,1750 Commerce Dr NW, Atlanta, GA 30318,https://maps.google.com/?cid=1735622970894764825,(404) 458-1200,1.31E+11,4.97645,4398.40024,1172.910034,,
333,Alexander on Ponce Apartments,33.773041,-84.382952,ChIJucyj5G4E9YgRKbzrbsQTSRc,30332,http://www.alexanderonponce.com/,144 Ponce De Leon Ave NE, Atlanta, GA 30308,https://maps.google.com/?cid=1677894070567681065,(404) 815-8020,1.31E+11,31.05983,5928.40027,1376.790039,,
14,Alexandria Landing,33.618212,-84.459824,ChIJ2-HJchjj9IgRGmw19ul-F3Q,30337, ,2135 Godby Rd, Atlanta, GA 30349,https://maps.google.com/?cid=8365294376187161626,(404) 762-6620,1.31E+11,2.59224,2024.39103,835.083008,,
214,Allen Hills Apartments,33.753953,-84.488788,ChIJ8X4uAHAc9YgRIzTJsUr6lkM,30311, ,3086 Middleton Rd NW, Atlanta, GA 30311,https://maps.google.com/?cid=4870355245765047331,(404) 505-1790,1.31E+11,0.48209,1769.39556,394.643005,,
369,Allen Wilson Apartments,33.772362,-84.299004,ChIJaSVEYDwH9YgRDTCZj0SY0Es,30030, ,1450 Commerce Dr, Decatur, GA 30030,https://maps.google.com/?cid=5463033768234790925,(404) 687-8358,1.31E+11,17.59441,3491.40318,173.667007,,
477,Allure At Brookwood,33.811073,-84.389475,ChIJXRDx0a4F9YgRLKxk8qFcOHE,30309,http://allurebrookwood.maac.com/,40 Peachtree Valley Rd NE, Atlanta, GA 30309,https://maps.google.com/?cid=8158372575607827500,(404) 350-3033,1.31E+11,13.31361,5687.40143,926.062988,,
576,Allure in Buckhead Village,33.837519,-84.375764,ChIJHaQ8No0F9YgRQugqRNN6p1o,30305,http://allurebuckhead.maac.com/,360 Pharr Rd NE, Atlanta, GA 30305,https://maps.google.com/?cid=6532324832324544578,(404) 231-8743,1.31E+11,21.74632,10104.40315,1214.459961,,
861,Alpharetta Corporate Apartments,34.104342,-84.265651,ChIJG_RqRwGe9YgRZNK7u15DvM0,30005,http://www.arcorporate.com/,13000 Summit Blvd, Alpharetta, GA 30004,https://maps.google.com/?cid=14824798147552465508,(770) 614-2121,1.31E+11,3.02486,2243.41908,2347.530029,,
57,Alta Coventry Station,33.682096,-84.50137,ChIJ-fR4NPMd9YgRg_sWMaqK2hA,30331,http://www.altacoventrystation.com/,3378 Greenbriar Pkwy SW, Atlanta, GA 30331,https://maps.google.com/?cid=1214435513102433155,(866) 683-8951,1.31E+11,0.80416,2264.39206,1120.48999,,
424,Amberidge Apartments,33.786709,-84.300568,ChIJL3ZaEhAH9YgRDqzD_R30RcU,30030,http://www.amberidge.info/,1031 Scott Blvd, Decatur, GA 30030,https://maps.google.com/?cid=14215036208513526798,(404) 797-3815,1.31E+11,3.64514,4033.40376,763.901978,,
838,AMLI at Northwinds,34.063359,-84.285294,ChIJzWCCU5519YgR2cPQTK56te0,30009,http://www.amli.com/apartments/atlanta/North-Atlanta/Alpharetta/northwinds,32000 Gardner Dr, Alpharetta, GA 30009,https://maps.google.com/?cid=17128731646805197785,(888) 479-2936,1.31E+11,5.14984,3823.41628,2084.310059,,
523,AMLI Lindbergh,33.820052,-84.365281,ChIJ2RRfP8MF9YgRCKQkvnkAn20,30324,http://www.amli.com/apartments/atlanta/Buckhead/Atlanta/lindbergh,2400 Parkland Dr NE, Atlanta, GA 30324,https://maps.google.com/?cid=7899032794312254472,(404) 267-1013,1.31E+11,10.9677,7140.40271,1799.22998,,
279,AMLI Management Company,33.760525,-84.387581,ChIJmy2YWWkV9YgRFwKjnBFq8qQ,30303,http://www.amli.com/,260 Peachtree St NW #1700, Atlanta, GA 30303,https://maps.google.com/?cid=11885678990459077143,(770) 281-3300,1.31E+11,67.59656,6027.39978,1482.01001,,
825,AMLI North Point,34.036344,-84.309469,ChIJu8rplSZ19YgRp_yii3fhMJo,30009,http://www.amli.com/apartments/atlanta/North-Atlanta/Alpharetta/north-point,9000 Beaver Creek Rd, Alpharetta, GA 30022,https://maps.google.com/?cid=11110628184283085991,(678) 971-2316,1.31E+11,5.37983,4776.4154,1452.51001,,
322,AMLI Old 4th Ward,33.76898,-84.366363,ChIJQfERKw4E9YgRat6hswPvgsA,30308,http://www.amli.com/apartments/atlanta/Downtown/Atlanta/old4thward,525 Glen Iris Dr NE, Atlanta, GA 30308,https://maps.google.com/?cid=13871912601432219242,(404) 267-4583,1.31E+11,7.30988,5701.40045,976.541992,,
308,AMLI Parkside,33.765663,-84.365526,ChIJbaWsEg8E9YgRuOrQwvFLRHg,30312,http://www.amli.com/apartments/atlanta/Downtown/Atlanta/parkside,660 Ralph McGill Blvd NE, Atlanta, GA 30312,https://maps.google.com/?cid=8666135084695349944,(404) 267-0968,1.31E+11,7.30988,5701.40045,976.541992,,
329,AMLI Ponce Park,33.770698,-84.365735,ChIJN8-3fBAE9YgRJ1OXXmQYGLI,30306,http://www.amli.com/apartments/atlanta/downtown/atlanta/ponce-park,641 North Avenue NE, Atlanta, GA 30308,https://maps.google.com/?cid=12833033957555000103,(404) 267-0964,1.31E+11,7.30988,5701.40045,976.541992,,
631,Anderson at Clairmont,33.851539,-84.302054,ChIJ4W8uZHAI9YgR6KyiJCFNMwE,30345,http://www.andersonatclairmont.com/,2500 NE Expy NE, Atlanta, GA 30345,https://maps.google.com/?cid=86497622594071784,(404) 982-7900,1.31E+11,2.30223,3783.40675,1607.349976,,
34,Ansley At Princeton Lakes,33.660603,-84.508234,ChIJy0PIAhHi9IgRGsQR23vzmVo,31131,http://ansleyatprincetonlakes.com/,3871 Redwine Rd, Atlanta, GA 30344,https://maps.google.com/?cid=6528516848132146202,(404) 629-9700,1.31E+11,1.01877,2462.39119,1742.650024,,
441,Ansley Forest Apartments,33.799269,-84.369418,ChIJy3eQeDME9YgR7E8mulg4bpY,30324,http://www.ansleyforestapartments.com/,1616 Piedmont Ave NE, Atlanta, GA 30324,https://maps.google.com/?cid=10839663306858713068,(404) 875-4702,1.31E+11,3.17378,5486.40186,1330.609985,,
267,Antioch Manor Estates,33.738055,-84.196243,ChIJp36R_e-r9YgRTTNgv4Knrgs,30088,http://www.antiochmanorliving.com/,4711 Bishop Ming Blvd, Stone Mountain, GA 30088,https://maps.google.com/?cid=841794360363201357,(770) 322-8839,1.31E+11,0.55947,2212.40542,942.299011,,
394,Apex West Midtown Apartments,33.789738,-84.425386,ChIJbQ6gNMQE9YgR6np8qbgatho,30318,http://venterraliving.com/apexwestmidtown/rent_pricing_availability?id=GA4XGGM,1133 Huff Rd NW, Atlanta, GA 30318,https://maps.google.com/?cid=1924755271167277802,(678) 686-9595,1.31E+11,6.63348,4035.39974,1126.280029,,
90,Appletree Townhouses,33.703688,-84.464287,ChIJ2eRb1BYd9YgRYdB0X8WtL04,30311, ,2328 Campbellton Rd SW, Atlanta, GA 30311,https://maps.google.com/?cid=5633912722085433441,(404) 349-7988,1.31E+11,0.60626,1878.39435,550.883972,,
183,Appliance Warehouse,33.747433,-84.542352,ChIJjXV6RL8e9YgRgiaXuEIquJ0,30336,https://www.appliancewhse.com/atlantawasherdryerrental.asp,4705 Bakers Ferry Rd SW # I, Atlanta, GA 30336,https://maps.google.com/?cid=11364880125722568322,(800) 693-4343,1.31E+11,2.32311,1588.39352,1007.47998,,
198,Arbor Crossings Apartments,33.711277,-84.135239,ChIJKWiXpbGt9YgRgUUIEKTxvR4,30058,http://www.arborcrossings.com/,10 Arbor Crossing Dr, Lithonia, GA 30058,https://maps.google.com/?cid=2215192278682060161,(770) 981-5471,1.31E+11,0.16023,1821.40635,1248.829956,,
250,Arbors of East Atlanta,33.747641,-84.328691,ChIJZWR7wzYB9YgRmsowFmAN47U,30317,http://bradenfellman.com/apartments/Arbors/,1800 Memorial Dr SE, Atlanta, GA 30317,https://maps.google.com/?cid=13106334046918593178,(404) 378-6412,1.31E+11,0.76656,3171.40137,738.820984,,
726,ARIUM Dunwoody,33.915168,-84.3003,ChIJE4OvPJcJ9YgRvloEM9ww874,30341,http://www.ariumdunwoody.com/,10 Gentrys Walk, Atlanta, GA 30341,https://maps.google.com/?cid=13759395008853859006,(770) 452-1773,1.31E+11,2.13109,5287.40936,1415.359985,,
821,ARIUM Johns Creek Apartments,34.017375,-84.195845,ChIJj8l0hVef9YgRFtYLUehRjls,30023,http://ariumjohnscreek.com/luxury-apartments/johns-creek/ga,9700 Medlock Crossing Pkwy, Alpharetta, GA 30022,https://maps.google.com/?cid=6597300562378348054,(770) 824-3063,1.31E+11,2.0848,3175.41744,2938.719971,,
832,Arium North Point,34.054735,-84.323636,ChIJJZnll-109YgRIGs-rX3SMsE,30076,http://ariumnorthpoint.com/,11251 Alpharetta Hwy, Roswell, GA 30076,https://maps.google.com/?cid=13921420835374918432,(770) 442-1773,1.31E+11,5.49564,4936.41459,1532.599976,,
799,ARIUM Riverside,34.00733,-84.353628,ChIJj-azJV8L9YgRjrzCkvaMzC8,30075,http://ariumriverside.com/,100 Chattahoochee Cir, Roswell, GA 30075,https://maps.google.com/?cid=3444282805683666062,(770) 587-5665,1.31E+11,0.83851,2400.41085,1102.900024,,
652,ARIUM Station 29,33.853564,-84.205797,ChIJ9_KrMBam9YgR3iUDLJi58_E,30084,http://ariumstation29.com/,2334 Fuller Way, Tucker, GA 30084,https://maps.google.com/?cid=17434482645705893342,(770) 908-8510,1.31E+11,3.60781,4618.40966,849.638977,,
220,Artist Square,33.746806,-84.404873,ChIJH8AvfnAD9YgR9DAg0gVS5P8,30303,http://www.artistsquareapartments.com/,23 Larkin Pl SW, Atlanta, GA 30313,https://maps.google.com/?cid=18438952959315292404,(404) 584-6556,1.31E+11,6.04406,4705.39822,650.453003,,
409,Arts Center Tower,33.789368,-84.388181,ChIJ-UiZ_FoE9YgRsZQBQkBCwSg,30363,http://www.liveartscentertower.com/,1270 West Peachtree St NW, Atlanta, GA 30309,https://maps.google.com/?cid=2936701275775014065,(404) 875-8666,1.31E+11,19.94391,5608.4006,1515.880005,,
273,Ashby Park Apartments,33.762271,-84.416774,ChIJpUlMgZ8E9YgRLHp5RI1UzsI,30310, ,880 Rock St NW, Atlanta, GA 30314,https://maps.google.com/?cid=14037250054276348460,(404) 221-9055,1.31E+11,1.53868,3808.39843,558.83197,,
490,Ashford 2788 Apartments,33.819116,-84.445392,ChIJCQcCUc4a9YgRaN91BKQ6s3Y,30325,http://www.ashford2788.com/,2788 Defoors Ferry Rd NW, Atlanta, GA 30318,https://maps.google.com/?cid=8553244593430585192,(404) 596-5656,1.31E+11,4.39186,3029.39983,978.340027,,
110,Ashford at Springlake,33.724667,-84.570546,ChIJ90XG4wYf9YgRTAGqX5RvXz8,30336,http://rjamesproperties.com/properties/ashford/,6200 Bakers Ferry Rd SW, Atlanta, GA 30331,https://maps.google.com/?cid=4566491230227792204,(404) 629-1708,1.31E+11,1.64596,1368.39148,2034.180054,,
144,Ashford East Village,33.715281,-84.327289,ChIJl7P6ZwkB9YgRDSqf937Cdkc,30316,http://www.ashfordeastvillage.com/,1438 Bouldercrest Rd, Atlanta, GA 30346,https://maps.google.com/?cid=5149517074520812045,(404) 748-4466,1.31E+11,0.168,2349.39972,369.328003,,
654,Ashford Gardens Apartments,33.863423,-84.299001,ChIJ-WtZVWgI9YgRMvLfu_S1NQs,30345,http://www.ashfordgardens.com/,2203 Plaster Rd NE, Atlanta, GA 30345,https://maps.google.com/?cid=807751770911535666,(404) 320-6306,1.31E+11,1.59009,3746.40713,678.995972,,
748,Ashford Park Apartment Homes,33.92775,-84.331725,ChIJr5oVUWcJ9YgRUO8prauTa7c,30346,http://ashfordparkapts.com/,2000 Asbury Square, Atlanta, GA 30346,https://maps.google.com/?cid=13216819897002749776,(770) 396-7771,1.31E+11,14.88655,7970.40871,2391.149902,,
440,Ashford Pavilion,33.785799,-84.244001,ChIJv4BIcLqp9YgRbYx2aNN-UmM,30079,http://www.ashfordpavilion.com/,3681 N Decatur Rd, Decatur, GA 30032,https://maps.google.com/?cid=7156922204300938349,(404) 806-7756,1.31E+11,3.1449,2922.40588,844.953979,,
708,Ashford Walk Apartments,33.895535,-84.230311,ChIJbw99VgKn9YgRITk2aoXQ0Ec,30340,http://ashfordwalk.com/,3480 Morningside Village Ln, Atlanta, GA 30340,https://maps.google.com/?cid=5174865243279866145,(770) 939-6042,1.31E+11,3.63846,3599.41104,750.731018,,
456,Ashgrove Apartments,33.78883,-84.212265,ChIJizRW_Bup9YgRqmS14_41IPo,30072,http://livewellashgrove.com/,481 Hambrick Rd, Stone Mountain, GA 30083,https://maps.google.com/?cid=18023465077595006122,(404) 292-6022,1.31E+11,0.53349,2538.40716,846.343018,,
589,Ashland Lakeview,33.8213,-84.194113,ChIJg_gJL7eo9YgRkVN-1NhsIeY,30083,http://www.ashlandlakeview.com/,200 Summit Lake Dr, Stone Mountain, GA 30083,https://maps.google.com/?cid=16582654981488661393,(770) 615-6216,1.31E+11,3.41361,2582.40924,805.945007,,
346,Ashland Pines Apartments,33.757295,-84.196145,ChIJA7hb81Cp9YgRfh0m6RAeDrI,30088,http://www.ashlandpinesapts.com/,1247 Adcox Rd, Stone Mountain, GA 30088,https://maps.google.com/?cid=12830225446405021054,(877) 959-7313,1.31E+11,0.49889,1936.40645,1300.910034,,
242,Ashley Auburn Pointe,33.751038,-84.377912,ChIJdeOFBnbC9YgRmHsldVDY4EU,30303,http://www.ashleyauburnpointe.com/,357 Auburn Pointe Dr SE, Atlanta, GA 30312,https://maps.google.com/?cid=5035262223474588568,(844) 300-8115,1.31E+11,130.38314,5335.39931,762.120972,,
108,Ashley Cascade,33.718441,-84.52339,ChIJkTEAv38e9YgRCEekph-2RNw,30331,http://www.ashleycascade.com,1371 Kimberly Way SW, Atlanta, GA 30331,https://maps.google.com/?cid=15872011233816495880,(866) 791-2924,1.31E+11,0.59705,1579.39265,885.442017,,
209,Ashley Collegetown Apartments,33.745048,-84.417841,ChIJZ9eqdkID9YgRZfBqVB-7UNI,30310,http://www.ashleycollegetown.com/contact.php,387 Joseph E Lowery Blvd SW, Atlanta, GA 30310,https://maps.google.com/?cid=15154818489336393829,(844) 711-3987,1.31E+11,7.03944,3421.39769,602.984009,,
805,Ashley Forest Apartments,34.004415,-84.278574,ChIJM-NpkKQK9YgRitxPRigE7J8,30022,http://www.ashleyforestapts.com/,9230 Nesbit Ferry Rd, Alpharetta, GA 30022,https://maps.google.com/?cid=11523590117559098506,(770) 642-4897,1.31E+11,0.79781,2605.41375,1511.5,,
190,Ashley Vista Apartments,33.708272,-84.145822,ChIJ9w7_U6ut9YgRBxfkyYnhPgI,30038,http://www.ashleyvista.com/,100 Camellia Ln, Lithonia, GA 30058,https://maps.google.com/?cid=161814618545854215,(770) 766-7972,1.31E+11,0.16023,1821.40635,1248.829956,,
186,Ashley West End,33.73502,-84.41492,ChIJMbPgAxUD9YgRY0oBtjIXjKo,30310,http://www.ashleywestend.com/,717 Lee St SW, Atlanta, GA 30310,https://maps.google.com/?cid=12289222989756582499,(877) 741-5933,1.31E+11,5.19716,3297.39744,506.700989,,
77,Ashton Browns Mill,33.681114,-84.367513,ChIJ--PGtBEC9YgRtZi3xJ6O2yU,30354,http://www.ashtonbrownsmill.com/,500 Cleveland Ave SE, Atlanta, GA 30354,https://maps.google.com/?cid=2727930811859310773,(888) 707-9292,1.31E+11,1.09435,1935.39648,522.879028,,
104,Aspen Courts,33.70996,-84.444329,ChIJCcnLsC4d9YgRI3UQKBiE0fs,30311, ,1631 Stanton Rd SW, Atlanta, GA 30311,https://maps.google.com/?cid=18145429612938687779,(404) 767-0297,1.31E+11,1.03891,1912.39527,432.602997,,
822,Aspen Pointe Apartments,34.030523,-84.320422,ChIJfbs8cNJ09YgRD7itvBWvRO4,30009,http://www.jamcoproperties.com/property/26/Aspen-Pointe-Apartments,1300 Gran Crique Dr, Roswell, GA 30076,https://maps.google.com/?cid=17169040187337848847,(888) 653-9489,1.31E+11,3.44881,4606.41321,1107.650024,,
128,Aspen Woods,33.702767,-84.276323,ChIJi3vE83sA9YgRxNR08_wln74,30034,http://aspenwoods.smpmgt.com/,3379 Flat Shoals Rd, Decatur, GA 30034,https://maps.google.com/?cid=13735739156849808580,(404) 241-2472,1.31E+11,2.48725,2344.40134,870.46698,,
623,Aspire Lenox Park Apartments,33.851729,-84.349218,ChIJqwsIsq4I9YgRTLqCSGofOg8,30319,http://www.aspirelenoxpark.com/,1050 Lenox Park Blvd NE, Atlanta, GA 30319,https://maps.google.com/?cid=1097224000561658444,(404) 869-1000,1.31E+11,15.24826,9711.40451,2867.360107,,
739,Atlanta Accommodations,33.926502,-84.335027,ChIJbUsVvF0J9YgR2nGU0fVeqdU,30338,http://www.furnished-apts.com/,4780 Ashford Dunwoody Rd Suite A-422, Atlanta, GA 30338,https://maps.google.com/?cid=15395941211018916314,(770) 573-7686,1.31E+11,14.0924,7915.40844,1316.880005,,
325,Atlanta Apartment Finders - RentalsGoneWild.com,33.771541,-84.381343,ChIJd3BEXW4E9YgRETdcWQdXtxw,30332,http://www.rentalsgonewild.com/,625 Piedmont Ave NE #2029, Atlanta, GA 30308,https://maps.google.com/?cid=2069218242875635473,(404) 921-2519,1.31E+11,31.05983,5928.40027,1376.790039,,
376,Atlantic Star Ice House Lofts,33.773136,-84.288837,ChIJaz-L8EAH9YgRKa93kzN4DEA,30030,http://bradenfellman.com/apartments/icehouse/,105 Sycamore Pl, Decatur, GA 30030,https://maps.google.com/?cid=4615195881060675369,(404) 377-5251,1.31E+11,17.0952,3812.40365,810.291016,,
639,Atlas Lavista Hills,33.85029,-84.249631,ChIJ61SHmeen9YgRky0uXpMAgfo,30345,http://www.atlaslavistahills.com/,2200 Parklake Dr NE, Atlanta, GA 30345,https://maps.google.com/?cid=18050709414417935763,(770) 621-4144,1.31E+11,7.79633,4562.4084,2170.51001,,
256,Auburn Glenn Apartments,33.75294,-84.371815,ChIJR6o3b_QD9YgROF6izpdeCzE,30312,http://www.auburnglenn.com/,49 Boulevard SE, Atlanta, GA 30312,https://maps.google.com/?cid=3534022338702106168,(404) 584-1300,1.31E+11,11.05396,5005.39979,828.862976,,
598,Audubon Briarcliff Apartments,33.838281,-84.309303,ChIJ7aI0m9QH9YgRxiGckNNu9Ak,30329,http://www.audubonbriarcliff.com/,3120 Briarcliff Rd NE, Atlanta, GA 30329,https://maps.google.com/?cid=717320095602057670,(404) 321-6566,1.31E+11,1.89905,3694.40688,1217.589966,,
189,Autumn Cove,33.707141,-84.137999,ChIJ_VYXWqmt9YgRQbwN72OSrxk,30038, ,6200 Hillandale Dr, Lithonia, GA 30058,https://maps.google.com/?cid=1850858929782635585,(770) 981-5460,1.31E+11,0.16023,1821.40635,1248.829956,,
9,Autumn Hills Apartments,33.58719,-84.534515,ChIJL3gSMk3h9IgRI_uD_siXGGE,30291, ,4483 Flat Shoals Rd, Union City, GA 30291,https://maps.google.com/?cid=6996508910639381283,(770) 969-8486,1.31E+11,0.54586,1452.38719,756.487976,,
547,Avalon on Montreal- Clarkston,33.81525,-84.245419,ChIJCRcfHkGo9YgRjUQ7FrXZiY8,30021,http://www.avalononmontreal.com/,1086 Montreal Rd, Clarkston, GA 30021,https://maps.google.com/?cid=10343037391018345613,(404) 296-8516,1.31E+11,1.24914,3249.40688,1053.040039,,
305,Avalon Park Apartments - Atlanta,33.776395,-84.477687,ChIJr6E9XHYb9YgReDqbsv46S4g,30318,http://www.avalonparkapts.com/,2798 W Peek Rd NW, Atlanta, GA 30318,https://maps.google.com/?cid=9821008278004120184,(404) 799-3131,1.31E+11,0.73264,1953.39671,537.921997,,
62,Avalon Ridge,33.672105,-84.387608,ChIJy5XMsnkC9YgRMxGYsd5v-94,30354,http://www.avalonridgeapts.com/,183 Mt Zion Rd SE, Atlanta, GA 30354,https://maps.google.com/?cid=16067559097827332403,(404) 343-7200,1.31E+11,3.93038,2028.39569,851.283997,,
61,Avalon Ridge Apartments- Atlanta,33.67181,-84.387554,ChIJjZXMsnkC9YgRqpB_JvieGDw,30388,http://www.avalonridgeapts.com/,183 Mt Zion Rd SE, Atlanta, GA 30354,https://maps.google.com/?cid=4330385830351704234,(404) 343-7200,1.31E+11,3.93038,2028.39569,851.283997,,
545,Avana Lenox,33.826302,-84.357142,ChIJzRHoqeEF9YgRg7ONTjNe_18,30324,http://www.avanalenox.com/,925 Canterbury Rd NE, Atlanta, GA 30324,https://maps.google.com/?cid=6917351127118623619,(404) 233-5900,1.31E+11,5.87633,7736.40336,1997.140015,,
391,Avana Westside Apartments,33.788675,-84.421786,ChIJUdzH78ME9YgRUROZ5CwZ-Zg,30377,http://www.avanawestside.com/,1040 Huff Rd NW, Atlanta, GA 30318,https://maps.google.com/?cid=11022869243570492241,(404) 367-9378,1.31E+11,6.63348,4035.39974,1126.280029,,
636,Avenues 85 Apartments,33.853249,-84.296701,ChIJBSIr9XEI9YgRNHKq9t_m1ag,30345,https://www.facebook.com/Avenues85Apts/,2515 Northeast Expy, Atlanta, GA 30345,https://maps.google.com/?cid=12165883818001723956,(404) 633-2675,1.31E+11,1.89905,3694.40688,1217.589966,,
364,Avery Glen Apartments,33.770799,-84.290784,ChIJ90P-WT8H9YgRsybiTyvFDbE,30030,http://www.rampartnersllc.com/,339 E College Ave, Decatur, GA 30030,https://maps.google.com/?cid=12758070109224969907,(404) 687-8100,1.31E+11,3.80099,3322.40326,2452.219971,,
24,Avery Park Townhomes,33.647414,-84.474609,ChIJcd1dj_Pi9IgRhQK0SXkHw1c,30337, ,2609 Charlestown Dr, College Park, GA 30337,https://maps.google.com/?cid=6323906519267279493,(404) 762-9606,1.31E+11,0.5406,1989.39183,805.145996,,
395,Avondale Station Apartments,33.774829,-84.275467,ChIJbYcgZl4H9YgRp1yW-gPbt88,30030,http://www.avondalestationapts.com/,703 Twin Oaks Dr, Decatur, GA 30030,https://maps.google.com/?cid=14967672696724675751,(404) 373-1643,1.31E+11,1.69213,3493.40415,1075.949951,,
818,Avonlea on the River,34.014558,-84.181902,ChIJTaf56gOi9YgRqMARxCz9YvY,30097,http://www.avonleaontheriver.com/,6015 State Bridge Rd, Johns Creek, GA 30097,https://maps.google.com/?cid=17754031049757802664,(770) 232-4600,1.31E+11,2.31807,3229.41856,2790.959961,,
741,Axis at Perimeter Apartments,33.926723,-84.334716,ChIJU1kUKVoJ9YgRFjLHgcL2NC0,30346,http://www.axisatperimeter.com/,8 Perimeter Center E, Atlanta, GA 30346,https://maps.google.com/?cid=3257499745757114902,(678) 443-9500,1.31E+11,14.0924,7915.40844,1316.880005,,
836,Aylesbury Farms Apartments,34.04879,-84.181449,ChIJ78yCXc2Y9YgRkAF-bLHqfX8,30097, ,6115 Abbotts Bridge Rd, Johns Creek, GA 30097,https://maps.google.com/?cid=9186756862655988112,(770) 476-5515,1.31E+11,0.7565,2084.41935,2326.070068,,
278,Azalea Gardens Apartments,33.763859,-84.423574,ChIJp8fwwKYE9YgRCNvtA8b_4Pg,30314, ,324 Archer Way NW, Atlanta, GA 30314,https://maps.google.com/?cid=17933614942123842312,(404) 584-6101,1.31E+11,0.74582,3260.39855,723.177002,,
790,Azalea Park at Sandy Springs,33.992734,-84.346439,ChIJs_-MPmUL9YgRWMad6c7NQcc,30350,http://www.gscapts.com/apartments/sandy_springs_ga/zip_30350/gsc/4526/,8805 Dunwoody Place Dr, Sandy Springs, GA 30350,https://maps.google.com/?cid=14357983375600240216,(888) 634-8719,1.31E+11,2.56054,2395.41105,938.481995,,
690,Azalea Ridge Apartments,33.890535,-84.229309,ChIJY_zGjQGn9YgR993zcL4ysmw,30340, ,3214 Valleybluff Dr, Doraville, GA 30340,https://maps.google.com/?cid=7832378495470919159,(770) 939-9430,1.31E+11,3.08054,3550.4107,1539.369995,,
756,Barclay At Dunwoody,33.929482,-84.299089,ChIJv5WapokJ9YgRrgJOmY3GRKQ,30338,http://barclaydunwoody.com/,4580 Barclay Dr, Dunwoody, GA 30338,https://maps.google.com/?cid=11836804032101221038,(770) 986-9091,1.31E+11,1.00157,3888.40983,2145.47998,,
307,Bass Lofts,33.764172,-84.352048,ChIJJ3YMCakG9YgRJ0uX3umnixw,30307,http://www.basslofts.com/,1080 Euclid Ave NE, Atlanta, GA 30307,https://maps.google.com/?cid=2056922277728439079,(844) 216-0903,1.31E+11,4.03052,5458.40089,1906.23999,,
521,Bch Grove Apartments,33.809163,-84.266175,ChIJbbApdyio9YgRDbu_pwV5Ooc,30033, ,3073 Cedar Creek Pkwy, Decatur, GA 30033,https://maps.google.com/?cid=9744233808965647117,(404) 292-2511,1.31E+11,1.64397,3948.40613,818.479004,,
662,Bedford Park Apartments,33.867467,-84.288335,ChIJAZ0KmD8I9YgRHdj_CD2GVcQ,30341,http://bedfordpark.smpmgt.com/,2739 Shallowford Rd, Atlanta, GA 30341,https://maps.google.com/?cid=14147361401156392989,(770) 451-6210,1.31E+11,2.39975,3774.40806,1605,,
819,Belcourt Apartments,34.028723,-84.313852,ChIJleYUZtV09YgRUWpcNn08mbM,30009,http://www.belcourtapts.com/,2200 Belcourt Pkwy, Roswell, GA 30076,https://maps.google.com/?cid=12941441512706435665,(866) 468-8552,1.31E+11,3.71411,4201.41402,884.370972,,
504,Bell Cheshire Bridge Apartments,33.813326,-84.354543,ChIJ8WTkOdgF9YgR80zz6-QWbxE,30324,http://www.bellapartmentliving.com/GA/Atlanta/Bell-Cheshire-Bridge/,2124 Cheshire Bridge Rd NE, Atlanta, GA 30324,https://maps.google.com/?cid=1256247993526602995,(404) 929-9289,1.31E+11,5.04553,6411.40289,1196.199951,,
40,Bell Hartsfield,33.654695,-84.410599,ChIJh_Eywm799IgR3qN_J95sk9g,30354,http://www.bellapartmentliving.com/GA/Atlanta/Bell-Hartsfield/,3640 S Fulton Ave, Atlanta, GA 30354,https://maps.google.com/?cid=15605936835170116574,(404) 209-8770,1.31E+11,5.8717,2011.3944,1026.77002,,
611,Bell Lenox Park,33.848071,-84.34779,ChIJVav4k6kI9YgRW0cuV9IUq9U,30326,http://www.bellapartmentliving.com/GA/Atlanta/Bell-Lenox-Park,100 Lenox Park Cir NE, Atlanta, GA 30319,https://maps.google.com/?cid=15396422644734510939,(404) 233-4959,1.31E+11,3.44585,9523.40462,1518.699951,,
840,Belmont At Park Bridge,34.062995,-84.244059,ChIJ624uq0ye9YgRygLOfX1hA5M,30005,http://www.belmont-apts.com/,150 Rockberry Ln, Alpharetta, GA 30005,https://maps.google.com/?cid=10593417940114997962,(770) 664-6502,1.31E+11,4.57967,2470.41786,1931.75,,
215,Berean Village,33.748697,-84.43377,ChIJb1_e700D9YgRnqW7aU6Fcfo,30314, ,230 Westview Pl SW, Atlanta, GA 30314,https://maps.google.com/?cid=18046351753678136734, ,1.31E+11,0.56335,2525.39727,643.395996,,
450,Berkshire Howell Mill,33.807957,-84.413099,ChIJafmGkB4F9YgRMRdnPXUerLA,30318,http://www.berkshirecommunities.com/apartments/ga/atlanta/howell-mill/,1950 Howell Mill Rd NW, Atlanta, GA 30318,https://maps.google.com/?cid=12730583735559722801,(404) 692-6196,1.31E+11,3.05035,4666.40055,1784.219971,,
451,Berkshire Howell Mill,33.807957,-84.413099,ChIJW0mGkB4F9YgRHMJuzeSOl_A,30327,http://www.berkshirecommunities.com/apartments/ga/atlanta/berkshire-howell-mill/,1950 Howell Mill Rd, Atlanta, GA 30318,https://maps.google.com/?cid=17336482403936289308,(404) 692-6196,1.31E+11,3.05035,4666.40055,1784.219971,,
600,Berkshire Terminus,33.845775,-84.37128,ChIJSSvHx_UF9YgRzYa4eSjKZ54,30355,http://www.berkshireterminus.com/,NE, 20 Terminus Pl #1100, Atlanta, USA,https://maps.google.com/?cid=11414314055783450317,(866) 646-5974,1.31E+11,29.36191,10272.40373,1158.910034,
609,Berkshires at Lenox Park,33.846656,-84.343941,ChIJizqDCagI9YgRwPi_ppiBS3o,30319,http://www.berkshirecommunities.com/apartments/ga/atlanta/the-berkshires-at-lenox-park/,2124 Gables Dr NE, Atlanta, GA 30319,https://maps.google.com/?cid=8812279588513118400,(404) 445-6493,1.31E+11,3.44585,9523.40462,1518.699951,,
266,Bethel Towers,33.756223,-84.38083,ChIJ27wrj4kD9YgRhOeEudS5Q6I,30303, ,Jesse Hill Jr Dr NE, Atlanta, GA 30303,https://maps.google.com/?cid=11692393380880639876, ,1.31E+11,67.39808,5663.39971,678.637024,,
355,Biltmore at Midtown Apartments,33.777921,-84.386706,ChIJr7zKzGcE9YgRruPzIkImKgc,30332,http://www.biltmoreatmidtown-apts.com/,855 West Peachtree St NW, Atlanta, GA 30308,https://maps.google.com/?cid=516267172783449006,(404) 888-0822,1.31E+11,37.02319,5914.40034,2004.089966,,
562,Birch Run Estates,33.819172,-84.237869,ChIJQwol72eo9YgRtFX2_nxi7Ho,30021,http://www.birchrunapts.com/,1204 Brockett Rd, Clarkston, GA 30021,https://maps.google.com/?cid=8857562856123946420,(404) 299-3565,1.31E+11,0.41279,2992.40761,959.35199,,
11,Biscayne Apartments,33.609377,-84.474774,ChIJbctwoA3j9IgR_GPiMx6F1U8,30349,http://www.biscayneapt.com/,5401 Old National Hwy, College Park, GA 30349,https://maps.google.com/?cid=5752650463801664508,(404) 692-6393,1.31E+11,1.80196,1674.39013,886.552002,,
311,Block Lofts,33.766297,-84.362501,ChIJfwKa-AQE9YgRs7NInEFdM7I,30312,http://www.blockloftsapartments.com/,747 Ralph McGill Blvd NE, Atlanta, GA 30312,https://maps.google.com/?cid=12840709498939683763,(404) 907-2374,1.31E+11,7.30988,5701.40045,976.541992,,
345,Braden Fellman Group Ltd,33.773491,-84.356939,ChIJla9vKxwE9YgRen6YxjbRidk,30306,http://bradenfellman.com/,931 Ponce De Leon Ave NE, Atlanta, GA 30306,https://maps.google.com/?cid=15675290011230043770,(404) 876-6432,1.31E+11,3.91468,5412.40123,1918.380005,,
621,Bradford Park Apartments,33.835994,-84.209918,ChIJjVWL-p6o9YgRQ7IoDu53-wc,30084, ,1839 Fellowship Rd #C, Tucker, GA 30084,https://maps.google.com/?cid=575185241743340099,(770) 939-3178,1.31E+11,3.60781,4618.40966,849.638977,,
65,Brandywine Townhouses,33.673919,-84.391402,ChIJnRF9234C9YgRpHeUKuIBMvo,30388,http://www.brandywinetownhouses.com/,85 Mount Zion Rd SW, Atlanta, GA 30354,https://maps.google.com/?cid=18028474329206126500,(404) 363-4670,1.31E+11,1.77838,2032.39588,766.952026,,
389,Braude Consulting Group,33.785,-84.38727,ChIJf8HolFwE9YgRI7_Vef1MlSA,30357,http://braudeconsultinggroup.com/,1109 West Peachtree St NW, Atlanta, GA 30309,https://maps.google.com/?cid=2347867432298069795,(404) 216-6217,1.31E+11,34.69863,6089.40072,1979.680054,,
86,Brentwood Creek,33.700815,-84.450652,ChIJgQQN0zsd9YgRdx3W44xAI44,30311,http://www.brentwoodcreekapartments.com/,1935 Alison Ct SW, Atlanta, GA 30311,https://maps.google.com/?cid=10242100951432699255,(404) 768-6344,1.31E+11,0.65366,1861.39482,497.381012,,
525,Briar Patch Apartments,33.81732,-84.33573,ChIJz8w6MGoG9YgRDRiFURwaLns,30322, ,2182 Briarcliff Rd NE, Atlanta, GA 30329,https://maps.google.com/?cid=8876060624522909709,(404) 633-2680,1.31E+11,3.069,5691.40369,1656.650024,,
568,Briarcliff Apartments,33.830303,-84.325313,ChIJjWWNUjoG9YgRJ1Rmz-ZYpT8,30329,http://www.thebriarcliffapts.com/,7000 Briarcliff Gables Cir NE, Atlanta, GA 30329,https://maps.google.com/?cid=4586169543892030503,(404) 325-0321,1.31E+11,7.55714,5186.40496,1274.199951,,
556,Briarhill Apartments,33.826112,-84.339423,ChIJJazUEhMG9YgRFfkfCsINlQA,30324,http://www.briarhillapts.com/,1470 Sheridan Rd NE, Atlanta, GA 30324,https://maps.google.com/?cid=41954898574571797,(404) 634-5891,1.31E+11,9.18307,6129.40393,1649.530029,,
471,Bridge Side Apartments,33.81583,-84.451945,ChIJvaEdI9sa9YgRo6qumphfI2M,30318, ,1955 La Dawn Ln NW, Atlanta, GA 30318,https://maps.google.com/?cid=7143658542974544547, ,1.31E+11,2.8189,2686.3992,1725.709961,,
592,Broadstone Court Apartments,33.839768,-84.371467,ChIJp2dJv_MF9YgRGz4wGK8vpTM,30355,http://www.broadstonecourt.com/?utm_source=local&utm_medium=organic&utm_content=GMB&utm_campaign=GTMA,3097 Maple Dr NE, Atlanta, GA 30305,https://maps.google.com/?cid=3721433096163180059,(404) 869-0303,1.31E+11,21.74632,10104.40315,1214.459961,,
53,Brookfield Apartments,33.670977,-84.459062,ChIJVRJEJ6Di9IgRT7ovOQIj0zo,30344,http://www.brookfieldapartmenthomes.com/,3072 Washington Rd #17, East Point, GA 30344,https://maps.google.com/?cid=4238770166742104655,(404) 692-7546,1.31E+11,0.34164,1928.39336,799.429016,,
678,Brookleigh Flats,33.892075,-84.323909,ChIJtfXe3xwJ9YgRFEn6HZP8pfo,30319,http://brookleighflats.com/,3450 Blair Cir NE, Atlanta, GA 30319,https://maps.google.com/?cid=18061119589432576276,(770) 451-8812,1.31E+11,1.38783,4863.40758,1731.569946,,
98,Brookside Park Apartments,33.701008,-84.406268,ChIJg4HcGe4C9YgRj2tYmxB_KmA,30315,http://www.brooksideparkatlapts.com/,565 St Johns Ave SW, Atlanta, GA 30315,https://maps.google.com/?cid=6929490685965396879,(855) 980-6829,1.31E+11,1.6616,2068.39615,485.868988,,
473,Brookwood Valley,33.809986,-84.38936,ChIJ-yHZcakF9YgR96F6tNGnSBQ,30309,http://www.brookwoodvalley.com/,2035 Peachtree Rd, Atlanta, GA 30309,https://maps.google.com/?cid=1461602598199665143,(404) 352-1013,1.31E+11,13.31361,5687.40143,926.062988,,
445,Bryson Square at City Park,33.803508,-84.401927,ChIJHc0D7f0E9YgRPOvxvVKCL24,30309,http://www.brysonsquare.com/,225 26th St NW, Atlanta, GA 30309,https://maps.google.com/?cid=7939707959963151164,(404) 870-9709,1.31E+11,3.05035,4666.40055,1784.219971,,
19,Buckingham Court Apartments,33.631996,-84.491218,ChIJoYQ7eU3i9IgR427u5u0AGYU,30337, ,4550 Washington Rd, Atlanta, GA 30349,https://maps.google.com/?cid=9590697903243816675,(404) 766-4882,1.31E+11,0.56442,1641.39039,618.692017,,
48,Bullock Habersham Townhomes,33.666648,-84.465679,ChIJ9QrSBZzi9IgRmKHq1RmBb-w,30344,http://rjamesproperties.com/properties/bullock-habersham-townhomes/,3251 Washington Rd, East Point, GA 30344,https://maps.google.com/?cid=17036977863328965016,(404) 766-8391,1.31E+11,0.32328,1938.3929,1018.640015,,
692,Calibre Springs,33.907127,-84.383218,ChIJLdd1YO4O9YgRiABzf52RPVM,30342,http://www.calibresprings.com/,800 Lake Placid Dr NE, Atlanta, GA 30342,https://maps.google.com/?cid=5998110384361504904,(404) 250-4300,1.31E+11,2.60163,4233.40553,1427.26001,,
524,Calibre Woods,33.815289,-84.31689,ChIJSV9tUUwG9YgRsrL0aEx5jTo,30322,http://www.calibrewoods.com/,2075 Lavista Rd, Atlanta, GA 30329,https://maps.google.com/?cid=4219161795001365170,(404) 634-4259,1.31E+11,5.8101,4305.40424,1151.280029,,
581,Calvin Court,33.83778,-84.371796,ChIJVVVVVYUF9YgRvn7odjRhslI,30355,http://www.calvincourt.org/,479 East Paces Ferry Rd NE, Atlanta, GA 30305,https://maps.google.com/?cid=5958932134925729470,(404) 261-1223,1.31E+11,21.74632,10104.40315,1214.459961,,
191,Cambridge Heights,33.707895,-84.140433,ChIJs9jCe6yt9YgRJatJdMYPUj4,30038,http://www.liveatcambridgeheights.com/,6136 Hillandale Dr, Lithonia, GA 30058,https://maps.google.com/?cid=4490669123470732069,(770) 981-6323,1.31E+11,0.16023,1821.40635,1248.829956,,
725,Cambridge Square Townhouses,33.910914,-84.262426,ChIJw-p-tV2n9YgRY--4wxRulKA,30340,http://rjamesproperties.com/,3061 Oakcliff Rd, Doraville, GA 30340,https://maps.google.com/?cid=11570994378083725155,(770) 457-8222,1.31E+11,1.73419,4174.41054,1014.580017,,
444,Camden Brookwood Apartments,33.802936,-84.397144,ChIJdddL5P8E9YgRGF4z_2cw4k0,30309,https://www.camdenliving.com/atlanta-ga-apartments/camden-brookwood,147 26th St NW, Atlanta, GA 30309,https://maps.google.com/?cid=5612101308878380568,(404) 541-0805,1.31E+11,16.90521,5574.40093,2203.870117,,
729,Camden Creekstone Apartments,33.919341,-84.307741,ChIJ66EU7pwJ9YgRHv9QJuGW0UU,30341,https://www.camdenliving.com/atlanta-ga-apartments/camden-creekstone,1945 Savoy Dr, Atlanta, GA 30341,https://maps.google.com/?cid=5030968152504205086,(770) 220-0964,1.31E+11,1.41841,5114.40851,2128.090088,,
860,Camden Deerfield Apartments,34.104254,-84.266008,ChIJj63rRwGe9YgRexIL7p0z-sc,30004,https://www.camdenliving.com/alpharetta-ga-apartments/camden-deerfield,13200 Summit Blvd, Alpharetta, GA 30004,https://maps.google.com/?cid=14409886711121908347,(770) 754-0700,1.31E+11,3.02486,2243.41908,2347.530029,,
736,Camden Dunwoody Apartments,33.922633,-84.305013,ChIJ6__uyYQJ9YgRD_9d1CwTQNE,30338,https://www.camdenliving.com/dunwoody-ga-apartments/camden-dunwoody,10 Peachford Cir, Dunwoody, GA 30338,https://maps.google.com/?cid=15078072635698839311,(770) 220-0040,1.31E+11,3.77977,4383.40942,1874.380005,,
331,Camden Midtown Atlanta Apartments,33.772233,-84.378778,ChIJeVwPTGwE9YgRVoLQt21YZ7Y,30332,https://www.camdenliving.com/atlanta-ga-apartments/camden-midtown-atlanta,265 Ponce De Leon Ave NE, Atlanta, GA 30308,https://maps.google.com/?cid=13143571265762656854,(404) 347-9200,1.31E+11,31.05983,5928.40027,1376.790039,,
596,Camden Paces Apartments,33.843735,-84.382324,ChIJE-U2EIkF9YgREEP6gYxczsU,30355,https://www.camdenliving.com/atlanta-ga-apartments/camden-paces,77 E Andrews Dr NW, Atlanta, GA 30305,https://maps.google.com/?cid=14253431629220037392,(404) 657-4323,1.31E+11,9.90896,7953.40322,1575.25,,
597,Camden St. Clair Apartments,33.837947,-84.314917,ChIJc5-eQywG9YgRZ8kcLMDCC8k,30329,https://www.camdenliving.com/atlanta-ga-apartments/camden-st-clair,3000 Briarcliff Rd NE, Atlanta, GA 30329,https://maps.google.com/?cid=14486886756996925799,(404) 327-9555,1.31E+11,7.55714,5186.40496,1274.199951,,
275,Camden Vantage Apartments,33.758383,-84.374713,ChIJE-SougoE9YgRYW_BhuDXiUE,30312,https://www.camdenliving.com/atlanta-ga-apartments/camden-vantage,180 Jackson St NE, Atlanta, GA 30312,https://maps.google.com/?cid=4722543043608145761,(404) 221-0360,1.31E+11,67.39808,5663.39971,678.637024,,
563,Campbell-Stone Buckhead,33.83434,-84.384828,ChIJKyvwaJAF9YgR07y8PAE_AOw,30348,http://www.campbellstone.org/,2911 Pharr Ct S Northwest, Atlanta, GA 30305,https://maps.google.com/?cid=17005661467497512147,(404) 261-4132,1.31E+11,6.14228,7060.40258,508.626007,,
713,Campbell-Stone Sandy Springs,33.915116,-84.376261,ChIJAeHJRZUO9YgRzZpxaK1-OuQ,30358,http://www.campbellstone.org/,350 Carpenter Dr NE, Atlanta, GA 30328,https://maps.google.com/?cid=16445596272543505101,(404) 256-2612,1.31E+11,7.30334,5296.40644,1254.780029,,
460,Campus Crossings at Briarcliff,33.802469,-84.337145,ChIJJZqElWEG9YgR6Ngn9b7K3D4,30322,http://www.livebriarcliff.com/,1659 Briarcliff Rd NE, Atlanta, GA 30306,https://maps.google.com/?cid=4529718246733502696,(844) 792-5107,1.31E+11,15.18894,4549.40348,1558.030029,,
177,Candler East Apartments,33.7192,-84.276354,ChIJ4yH9sIQA9YgRjYxitSZ5DTg,30032,http://www.candlereast.com/,2425 Candler Rd, Decatur, GA 30032,https://maps.google.com/?cid=4039017647980055693,(404) 288-2365,1.31E+11,1.1714,2546.40151,760.14502,,
221,Capitol Gateway,33.745352,-84.384106,ChIJF9DnQ5AD9YgRiugit9xuFFA,30303,http://www.liveatcapitolgateway.com/,89 Woodward Ave SE, Atlanta, GA 30312,https://maps.google.com/?cid=5770358916812826762,(855) 750-6984,1.31E+11,15.07743,4850.39901,302.247986,,
165,Capitol Vanira Apartments,33.728826,-84.387048,ChIJ05x3waQD9YgRBCtKMPQ2hbU,30315, ,942 Hank Aaron Dr SE, Atlanta, GA 30315,https://maps.google.com/?cid=13079921115177560836,(404) 586-0068,1.31E+11,1.97366,2931.39828,336.222992,,
138,Capitol View Apartments,33.722367,-84.408232,ChIJtbinFxsD9YgRtVVGnQNuki0,30310, ,1191 Metropolitan Pkwy SW # 6, Atlanta, GA 30310,https://maps.google.com/?cid=3283808040109102517,(404) 753-5000,1.31E+11,1.91387,3185.39732,452.799011,,
93,Caribu Apartments,33.699914,-84.419658,ChIJm9S-NcIC9YgRoeRuRGfxZnk,30310, ,2001 Sylvan Rd SW, Atlanta, GA 30310,https://maps.google.com/?cid=8747944752045810849,(404) 755-8521,1.31E+11,1.74787,2010.39567,378.674988,,
472,Carondelet Apartments,33.813179,-84.424659,ChIJa08eqiUF9YgR8TYVPqDVwGc,30325, ,2113 Defoors Ferry Rd NW, Atlanta, GA 30318,https://maps.google.com/?cid=7476210265648084721,(404) 355-5407,1.31E+11,1.84108,3801.40049,1727.150024,,
552,Carriage Oaks Apartments,33.815248,-84.236243,ChIJYf0f_1yo9YgRNLYDnxPNTzg,30021,http://www.nelkinrealestate.com/carriageoaks1-2.php,4366 E Ponce de Leon Ave, Clarkston, GA 30021,https://maps.google.com/?cid=4057687273439999540,(404) 508-9433,1.31E+11,0.70093,3075.40727,844.557007,,
469,Carriage Place Apartments,33.798086,-84.277238,ChIJt4E28ngH9YgRJ2LeI5b8fYg,30033,http://www.carriageplaceliving.com/,401 Carriage Pl Ct, Decatur, GA 30033,https://maps.google.com/?cid=9835294883024101927, ,1.31E+11,8.01322,4898.40496,867.557007,,
170,Cascade Garden Apartments,33.734797,-84.437453,ChIJE8ZszzQD9YgRuMaM0lUhGNo,30310, ,763 Cascade Ave SW # 10, Atlanta, GA 30310,https://maps.google.com/?cid=15715347552197723832,(404) 755-7368,1.31E+11,0.13905,2321.39651,626.387024,,
72,Cascade Glen Apartments,33.693617,-84.515017,ChIJzfign-Yd9YgRQd5vgfJKek4,30331,http://www.jamcoproperties.com/property/23/Cascade-Glen-Apartments,3901 Campbellton Rd SW, Atlanta, GA 30331,https://maps.google.com/?cid=5654914687531212353,(888) 653-9485,1.31E+11,0.3158,1766.39247,933.166992,,
121,Cascade Oaks,33.723245,-84.511253,ChIJrWrn7S0c9YgRWOb6yUw-Sj0,30331,http://www.cascadeoaksapts.com/,3820 Old Cascade Rd SW, Atlanta, GA 30331,https://maps.google.com/?cid=4416410884117292632,(404) 476-4648,1.31E+11,0.59705,1579.39265,885.442017,,
228,CAU Suites,33.751521,-84.411692,ChIJe2Ds1WUD9YgRJz4UPQOCxps,30314,http://www.causuites.com/,128 Mildred St SW, Atlanta, GA 30314,https://maps.google.com/?cid=11224802071688789543,(404) 880-8690,1.31E+11,7.13518,4005.39817,609.435974,,
531,CB Lofts,33.82108,-84.352261,ChIJ__Xc_XQG9YgRlsRhrX64StQ,30324,http://www.cblofts.com/,2430 Cheshire Bridge Rd NE, Atlanta, GA 30324,https://maps.google.com/?cid=15297241938531566742,(404) 315-6115,1.31E+11,5.04553,6411.40289,1196.199951,,
768,Celebration At Sandy Springs,33.946228,-84.373019,ChIJ70s6LBgM9YgRDRzN-AQ1yYw,30328,http://www.celebrationatsandysprings.com/,7000 Roswell Rd, Atlanta, GA 30328,https://maps.google.com/?cid=10144697931099085837,(770) 394-6300,1.31E+11,1.42821,4317.40765,1055.430054,,
310,Centennial Park North,33.769061,-84.392185,ChIJNdVdtnwE9YgR17ClRtg6fHM,30313, ,536 Centennial Olympic Park Dr NW, Atlanta, GA 30313,https://maps.google.com/?cid=8321590912046444759,(404) 881-9614,1.31E+11,74.45806,5782.39947,505.39801,,
309,Centennial Place Apartments,33.768731,-84.392383,ChIJla4DuXwE9YgR3yCtvTqd2WA,30332,http://centennialplaceapartments.com/,526 Centennial Olympic Park Dr NW, Atlanta, GA 30313,https://maps.google.com/?cid=6978781973203198175,(844) 315-8084,1.31E+11,77.12797,5809.39965,600.741028,,
358,Center Street Apartments,33.779811,-84.401754,ChIJc7zVnowE9YgRjx4A4Enest0,30377, ,939 Hemphill Ave NW, Atlanta, GA 30318,https://maps.google.com/?cid=15975075237108653711,(404) 894-2470,1.31E+11,14.46451,4430.39942,1144.939941,,
100,Centra Villa Apartments,33.707999,-84.456074,ChIJr9gKrCMd9YgRAirSCWlWbYM,30311,http://rjamesproperties.com/properties/centra-villa-apartments/,1717 Centra Villa Dr SW, Atlanta, GA 30311,https://maps.google.com/?cid=9470320600566344194,(404) 753-2888,1.31E+11,0.58718,1865.39495,1827.530029,,
25,Central Park Apts,33.650315,-84.484404,ChIJp50QFl7i9IgRkbqWBK6rxlU,30337,http://www.aptforrentatlanta.com/,2900 Camp Creek Pkwy, College Park, GA 30337,https://maps.google.com/?cid=6180816302502230673,(404) 762-9691,1.31E+11,0.40113,2065.39154,568.684998,,
660,Century Peachtree Creek Apartments,33.865821,-84.286006,ChIJS_KcCD4I9YgRSIs361Kv7_4,30341,http://www.centurypeachtreecreek.com/,3001 Northeast Expy, Atlanta, GA 30341,https://maps.google.com/?cid=18370094175736007496,(770) 455-4408,1.31E+11,2.0054,3545.40794,937.710999,,
298,Century Skyline Apartments,33.764897,-84.382617,ChIJW753I3EE9YgRPIrVZI9jerE,30332,http://www.centuryskylineapts.com/,396 Piedmont Ave NE, Atlanta, GA 30308,https://maps.google.com/?cid=12788643559395134012,(855) 434-8045,1.31E+11,16.08094,5997.40004,812.245972,,
303,CFI At Pressley Woods,33.759747,-84.321122,ChIJGwnvPtIG9YgRy1ToQP6bJfI,30317, ,265 Kirkwood Rd NE, Atlanta, GA 30317,https://maps.google.com/?cid=17448523847629821131,(404) 378-1727,1.31E+11,0.77938,3090.40175,852.72998,,
685,Chamblee Heights Apartments,33.89297,-84.29153,ChIJLfwdlbUJ9YgRcQe4c43EBvY,30341, ,3255 Chamblee Dunwoody Rd, Chamblee, GA 30341,https://maps.google.com/?cid=17728073095001409393,(770) 451-2644,1.31E+11,5.69563,5379.40866,1103.959961,,
4,Champions Glen Apartments,33.579916,-84.532475,ChIJgfFV4rHm9IgR6nbE7QDvNuE,30291,http://www.champions-glen.com/,6425 Oakley Rd, Union City, GA 30291,https://maps.google.com/?cid=16228421094544275178,(770) 969-4453,1.31E+11,1.62604,2288.38689,1061.170044,,
800,Champions Green Apartments,34.001014,-84.280404,ChIJaSd81aIK9YgRUPKCIA3c-Z4,30022,http://venterraliving.com/championsgreen/rent_pricing_availability?id=CHGGGM006,1001 Champions Green Pkwy, Alpharetta, GA 30022,https://maps.google.com/?cid=11455429076131705424,(678) 534-7168,1.31E+11,0.70267,2355.41356,1399.959961,,
174,Chapel Run Apartments,33.711649,-84.205861,ChIJMevdr5ir9YgRPUGFTgS1E8Q,30035,http://www.chapelrunapartments.com/,4522 Snapfinger Woods Dr, Decatur, GA 30035,https://maps.google.com/?cid=14128835486093230397,(770) 808-5777,1.31E+11,1.16935,2675.4042,801.927002,,
687,Charleston Court,33.903599,-84.374368,ChIJfXd3vMIO9YgRv3awLKzgC6Y,30342,http://charlestoncourt.net/,5450 Glenridge Dr, Atlanta, GA 30342,https://maps.google.com/?cid=11964903865128613567,(404) 303-9226,1.31E+11,5.76323,4875.40613,1685.25,,
160,Charleston Pointe,33.721511,-84.324306,ChIJabGD3w8B9YgRZ6cmFsegbUQ,30316,http://www.charlestonpointehoa.com/outside_home.asp,1590 Charleston Walk SE, Atlanta, GA 30316,https://maps.google.com/?cid=4930773943971129191,(404) 381-0048,1.31E+11,0.4501,2286.4001,1272.689941,,
17,Chastain Crossings Apartments,33.628032,-84.474867,ChIJVTrhAgLj9IgROyZyB7Y7N4E,30337, ,2601 Roosevelt Hwy, College Park, GA 30337,https://maps.google.com/?cid=9310976407606797883,(404) 768-8306,1.31E+11,0.47886,1869.39101,1210.079956,,
666,Chastain Terrace Apartments,33.887014,-84.378883,ChIJnXP40x4P9YgRYonzZyC_ANE,30342,http://www.mychastainterrace.com/,240 Franklin Rd, Atlanta, GA 30342,https://maps.google.com/?cid=15060247299830810978,(844) 229-2955,1.31E+11,2.24731,4044.40534,1459.829956,,
260,Chateau Chennault,33.758269,-84.418024,ChIJlQUew18D9YgRVgBMuvrODlc,30310, ,936 Mayson Turner Rd NW, Atlanta, GA 30314, GA 30314, USA,https://maps.google.com/?cid=6273178907236368470, ,1.31E+11,1.21851,3272.39821,658.974976
643,Chateau Montagne Apartments,33.856376,-84.298049,ChIJ_____zsG9YgR2jk5dfmn28k,30345,http://www.chateau-montagne.com/,2628 Northeast Expy, Atlanta, GA 30345,https://maps.google.com/?cid=14545404111378528730,(404) 633-4286,1.31E+11,2.30223,3783.40675,1607.349976,,
664,Chateau Villa Apartments,33.883397,-84.379332,ChIJ7W61CxkP9YgREYndZBltPsQ,30342, ,4717 Roswell Rd S1, Atlanta, GA 30342,https://maps.google.com/?cid=14140859835823786257,(404) 255-2766,1.31E+11,2.1321,4344.40503,1300.310059,,
222,Chelsea Place Apartments,33.717531,-84.112315,ChIJ8XPA3pGt9YgR9Y9VqDal6N4,30038,http://www.livewellchelseaplace.com/chelsea-place-lithonia-ga,2361 Parc Chateau Dr, Lithonia, GA 30058,https://maps.google.com/?cid=16062269725187870709,(770) 482-2530,1.31E+11,1.83272,2008.40756,1032.790039,,
76,Chez Moi Apartments,33.684373,-84.401547,ChIJscTW044C9YgRNTyWk6T9V1A,30354, ,2585 Beeler Dr SW, Atlanta, GA 30315,https://maps.google.com/?cid=5789374729300622389,(678) 705-7850,1.31E+11,2.61797,2024.39552,735.005005,,
786,Circa 400 Apartment Homes,33.981725,-84.345592,ChIJ0UVqTXgL9YgRchC-n5A1TqQ,30350,http://www.circa400.com/,501 Northridge Rd, Atlanta, GA 30350,https://maps.google.com/?cid=11839459365675208818,(678) 448-4150,1.31E+11,5.20497,2972.41012,917.843994,,
226,City Plaza Apartments,33.74882,-84.391806,ChIJjaxHa4MD9YgRiFw9e1lKeiY,30303,http://www.cityplazajmg.com/,133 Trinity Ave SW, Atlanta, GA 30303,https://maps.google.com/?cid=2772610268780125320,(678) 608-4352,1.31E+11,67.02457,5085.39917,908.02301,,
289,City View Apartments,33.761323,-84.373587,ChIJ90CrEAsE9YgRIdPvubM5-S4,30306,http://www.cityviewatlanta.com/,433 Highland Ave NE, Atlanta, GA 30312,https://maps.google.com/?cid=3384800039027069729,(404) 223-9260,1.31E+11,7.47403,5384.40013,2224.669922,,
640,CityNORTH Apartments,33.850352,-84.248006,ChIJJdkIW92n9YgRBdgth1gVnQQ,30345,http://www.citynorthatlanta.com/,3421 Northlake Pkwy NE, Atlanta, GA 30345,https://maps.google.com/?cid=332445417464518661,(770) 723-7036,1.31E+11,7.79633,4562.4084,2170.51001,,
262,CityWalk Apartments,33.75532,-84.38128,ChIJh2xtLYYD9YgR6dYotPlD8fc,30303,http://www.citywalkatl.com/,171 Auburn Ave NE, Atlanta, GA 30303,https://maps.google.com/?cid=17866135936503961321,(404) 521-3008,1.31E+11,67.39808,5663.39971,678.637024,,
503,Clairmont Crest Beautyshop,33.808519,-84.308894,ChIJPwNYuq0H9YgRb8pixsQ3RdE,30033, ,1861 Clairmont Rd, Decatur, GA 30033,https://maps.google.com/?cid=15079520245601454703,(404) 329-1857,1.31E+11,7.14707,4402.40458,1661.660034,,
466,Clairmont Reserve,33.80086,-84.308225,ChIJ6W_0F6oH9YgROuBqazgSDRA,30322,http://www.clairmontreserve.com/,1575 Clairmont Rd, Decatur, GA 30033,https://maps.google.com/?cid=1156600712833720378,(404) 315-8101,1.31E+11,22.78613,4116.40378,914.174011,,
485,Clarkston Oaks Apartments,33.798707,-84.247186,ChIJh0vgdEuo9YgR7BFDw5-drwY,30021,http://rjamesproperties.com/properties/clarkston-oaks/,767 Northern Ave, Clarkston, GA 30021,https://maps.google.com/?cid=481776994653245932,(404) 294-1488,1.31E+11,1.31324,3103.4064,633.517029,,
548,Clarkston Station Apartments,33.815126,-84.242679,ChIJn48fS0Ko9YgRHy01615SIbI,30021,http://www.clarkstonstationapts.com/,3629 Montreal Creek Cir, Clarkston, GA 30021,https://maps.google.com/?cid=12835630980609158431,(404) 508-3118,1.31E+11,0.70093,3075.40727,844.557007,,
530,Clarkston Townhomes,33.810086,-84.245118,ChIJYy3nY0ao9YgRVUwmYft5JdM,30021,http://rjamesproperties.com/properties/clarkston-townhomes/,3519 W Hill St, Clarkston, GA 30021,https://maps.google.com/?cid=15214701036714740821,(404) 296-4125,1.31E+11,1.32975,3138.4067,824.588013,,
483,Clifton Glen Apartments,33.794938,-84.214227,ChIJYWCz8x2p9YgRDZ7VcYynh8o,30072,http://www.cliftonglen.com/,600 Hambrick Rd, Stone Mountain, GA 30083,https://maps.google.com/?cid=14593817339164466701,(678) 554-4559,1.31E+11,1.27513,2586.40748,1145.699951,,
447,Clifton Towers,33.797726,-84.322201,ChIJkcHkLvgG9YgRzbaHxVmKuJo,30322, ,1501 Clifton Rd, Atlanta, GA 30322,https://maps.google.com/?cid=11148812995726390989, ,1.31E+11,22.78613,4116.40378,914.174011,,
30,Club House Townhomes,33.652226,-84.469467,ChIJuUkhYI3i9IgREgk-OOFtzT8,30337, ,3800 Herschel Rd, College Park, GA 30337,https://maps.google.com/?cid=4597451608693803282, ,1.31E+11,1.10352,1961.39202,1395.689941,,
496,CoHo,33.815213,-84.397263,ChIJWfvt5QcF9YgRvBaszKADxKI,30002,http://www.cohoatl.com/,177 N Colonial Homes Cir NW, Atlanta, GA 30309,https://maps.google.com/?cid=11728503318743094972,(855) 269-9069,1.31E+11,9.78642,5227.4015,1581.02002,,
269,Collier Heights Apartments,33.764942,-84.457744,ChIJz_d-Nl4b9YgRAMn03UusdIE,30314, ,2125 Joseph E. Boone Blvd NW, Atlanta, GA 30314,https://maps.google.com/?cid=9328270170037471488,(404) 792-0679,1.31E+11,0.40916,2114.39725,751.25,,
475,Collier Ridge Apartments,33.813956,-84.425831,ChIJIRy-zDoF9YgRywiG-ddiN3c,30325,http://www.collierridge.com/,100 Noble Creek Dr NW, Atlanta, GA 30327,https://maps.google.com/?cid=8590443493976312011,(404) 351-8548,1.31E+11,1.84108,3801.40049,1727.150024,,
833,Collingwood Apartments,34.04931,-84.261791,ChIJl9FLeNuf9YgRSeJsO4m_94o,30005,http://www.collingwoodram.com/,3400 Kimball Bridge Rd, Alpharetta, GA 30022,https://maps.google.com/?cid=10013682892610003529,(770) 667-3211,1.31E+11,4.28483,2520.41684,2404.929932,,
762,Colonial Grand at Mount Vernon,33.937758,-84.350349,ChIJQSLg9P4L9YgR6oQp51eC2G8,30338,http://cgmountvernon.maac.com/,100 Preston Woods Trail, Dunwoody, GA 30338,https://maps.google.com/?cid=8059334847231526122,(770) 668-9292,1.31E+11,10.66291,6869.40843,1535.150024,,
497,Colonial Homes Apartments,33.815173,-84.39656,ChIJ4eCNIKgF9YgReOZ6JpQafwc,30002,http://colonialhomesatlanta.com/,177 N Colonial Homes Cir NW, Atlanta, GA 30309,https://maps.google.com/?cid=540179703910819448,(404) 355-0580,1.31E+11,9.78642,5227.4015,1581.02002,,
74,Colonial Square,33.68332,-84.396162,ChIJiadlgWIC9YgRyrJT48u4J7U,30354, ,2637 Old Hapeville Rd SW, Atlanta, GA 30315,https://maps.google.com/?cid=13053605230788457162,(404) 767-1894,1.31E+11,0.51734,2080.39627,683.468018,,
29,Colony At Camp Creek,33.653992,-84.494293,ChIJ6zeUpGni9IgR5talA8OhNN0,30344, ,3222 Kenelworth Dr, Atlanta, GA 30344,https://maps.google.com/?cid=15939542840122922726,(404) 765-4926,1.31E+11,1.33657,2470.39145,851.117981,,
243,Colony Ridge Apartments,33.737563,-84.242057,ChIJgWUsoTuq9YgRXyvazKBa3Mw,30035, ,4373 Glenwood Rd, Decatur, GA 30032,https://maps.google.com/?cid=14761773325291760479,(404) 549-6581,1.31E+11,0.60601,2155.40387,1092.699951,,
38,Colony Square Apartments Inc,33.64899,-84.360855,ChIJ82tH5-b99IgRv-hORZV9PGs,30354, ,925 Conley Rd SE, Atlanta, GA 30354,https://maps.google.com/?cid=7727189140727326911,(404) 366-2850,1.31E+11,1.04584,1694.3964,1022.890015,,
52,Columbia At South River Garden,33.659807,-84.355103,ChIJBS_0n_399IgR84_T5coBSIo,30354,http://www.columbiares.com/property/columbia-south-river-gardens,3450 Forrest Park Rd SE, Atlanta, GA 30354,https://maps.google.com/?cid=9964216146508091379,(404) 968-0043,1.31E+11,1.04584,1694.3964,1022.890015,,
92,Columbia At Sylvan Hills,33.700395,-84.426262,ChIJA7iu-xUd9YgReGe_TuN9aKs,30344,http://www.columbiares.com/property/columbia-sylvan-hills-0,1150 Astor Ave SW, Atlanta, GA 30310,https://maps.google.com/?cid=12351260393295800184,(404) 756-6788,1.31E+11,1.74787,2010.39567,378.674988,,
123,Columbia Blackshear,33.711511,-84.383133,ChIJact0qlMC9YgRfjodAPwQklY,30315,http://www.columbiares.com/property/columbia-blackshear-senior-residences,14 Meldon Ave SE, Atlanta, GA 30315,https://maps.google.com/?cid=6238067108381276798,(404) 525-0558,1.31E+11,1.81645,2192.39759,504.93399,,
200,Columbia Candler Forest,33.727087,-84.281501,ChIJmVkaQpcA9YgRhlIlB8xPvSQ,30032,http://www.columbiares.com/property/candler-forrest-apartments,2145 Candler Rd, Decatur, GA 30032,https://maps.google.com/?cid=2647359893675528838,(678) 904-3174,1.31E+11,0.35389,2292.40155,493.38501,,
285,Columbia Citi Homes,33.757916,-84.344924,ChIJTxOlP60G9YgRoKN8upka1CQ,30307,http://www.columbiares.com/,165 Marion Pl NE, Atlanta, GA 30307,https://maps.google.com/?cid=2653775327989113760, ,1.31E+11,3.4164,4342.40086,651.804993,,
212,Columbia Commons Apartments,33.751497,-84.470531,ChIJMbts-I8c9YgRiscBgpAax4E,30311,http://www.columbiares.com/property/columbia-commons,2524 M.L.K. Jr Dr NW, Atlanta, GA 30311,https://maps.google.com/?cid=9351472359216891786,(404) 699-7597,1.31E+11,2.28673,1863.39592,594.075012,,
404,Columbia Crest,33.794019,-84.450333,ChIJQWn70DwU9YgRyZCfhgP_xX4,30318,http://www.columbiares.com/,1903 Drew Pl NW, Atlanta, GA 30318,https://maps.google.com/?cid=9134987809799508169,(404) 792-3321,1.31E+11,0.66627,2704.39855,411.492004,,
159,Columbia Mill Apartments,33.720184,-84.314602,ChIJoVILKgMB9YgRNBKcgX-XYt8,30316,http://www.columbiares.com/property/columbia-mill,2239 Flat Shoals Rd SE, Atlanta, GA 30316,https://maps.google.com/?cid=16096594592066703924,(404) 241-7441,1.31E+11,0.50023,2319.40048,478.739014,,
385,Columbia Park Citi,33.790285,-84.449452,ChIJMcR7Ejob9YgRaYuSVxJa2hA,30369,http://www.columbiares.com/,921 Westmoreland Cir NW, Atlanta, GA 30318,https://maps.google.com/?cid=1214382084354902889,(404) 792-7771,1.31E+11,0.66627,2704.39855,411.492004,,
246,Columbia Place Apartments,33.739351,-84.254639,ChIJyQ_tzhCq9YgR1iwV9g0hC8s,30032, ,1776 S Columbia Pl, Decatur, GA 30032,https://maps.google.com/?cid=14630824158290062550,(404) 288-9461,1.31E+11,0.65436,2672.40336,920.21698,,
216,Columbia Tower,33.744133,-84.383576,ChIJC8Sr-ZAD9YgRcBD42b7YltE,30321,http://www.columbiares.com/,380 Martin St SE, Atlanta, GA 30312,https://maps.google.com/?cid=15102496714645835888,(404) 230-7556,1.31E+11,15.07743,4850.39901,302.247986,,
287,Columbia Townhomes At Edgewood,33.75768,-84.340971,ChIJ_74EILMG9YgRd0NE9HI25qE,30307,http://www.columbiares.com/property/retreat-edgewood-townhomes,150 Hutchinson St NE, Atlanta, GA 30307,https://maps.google.com/?cid=11666071752102134647,(404) 577-9001,1.31E+11,3.38274,4138.40106,448.839996,,
208,Columbia Village Apartment,33.734152,-84.310349,ChIJZ_VbuN8A9YgRw9qa3i5CDTQ,30317,http://www.columbiares.com/,100 Jessica Ave, Decatur, GA 30032,https://maps.google.com/?cid=3750726833740110531,(404) 377-2445,1.31E+11,0.37735,2414.40096,679.905029,,
755,Columns At Lakeridge,33.927665,-84.307535,ChIJ6yHvKYQJ9YgRMC6loL1NcXg,30338,http://www.columnsapartments.com/apartments/ga/dunwoody/the-columns-at-lake-ridge/index.aspx,3900 Lake Ridge Ln, Dunwoody, GA 30338,https://maps.google.com/?cid=8678803433758993968,(770) 986-0788,1.31E+11,3.77977,4383.40942,1874.380005,,
293,Commons at Imperial Hotel,33.764024,-84.385498,ChIJOUonqHAE9YgRir5CGBoKHRc,30332,https://www.nationalchurchresidences.org/communities/ga/atlanta/commons-at-imperial-hotel,355 Peachtree St NE, Atlanta, GA 30308,https://maps.google.com/?cid=1665498544389406346,(404) 410-1420,1.31E+11,67.59656,6027.39978,1482.01001,,
520,Conservatory At Druid Hills,33.811516,-84.291296,ChIJeedVRL0H9YgRu5eYFeH-DKU,30322,http://viridianatlanta.com/,3421 N Druid Hills Rd, Decatur, GA 30033,https://maps.google.com/?cid=11893160958662055867,(866) 205-6563,1.31E+11,1.08662,4211.4057,1749.47998,,
96,Constitution Avenue Apartments LP,33.694295,-84.357109,ChIJR3I5HyEC9YgRTpJsa9TDRe4,30315, ,960 Constitution Rd SE, Atlanta, GA 30315,https://maps.google.com/?cid=17169344471522644558, ,1.31E+11,1.33479,2107.39781,706.739014,,
91,Constitution Hill Apartments,33.692822,-84.351796,ChIJQWHACYsB9YgROvCne0PgRJg,30288,http://www.constitution-hill.com/,1177 Constitution Rd SE, Atlanta, GA 30315,https://maps.google.com/?cid=10972141172623405114,(404) 627-8115,1.31E+11,1.33479,2107.39781,706.739014,,
319,Copenhill Lofts & Condominiums,33.768142,-84.359443,ChIJmSSmrwQE9YgRJc3GqPNn3YE,30306, ,850 Ralph McGill Blvd NE, Atlanta, GA 30306,https://maps.google.com/?cid=9357749896952073509,(404) 614-0543,1.31E+11,4.03052,5458.40089,1906.23999,,
743,Cornerstone Apartment Homes,33.920718,-84.269533,ChIJZa7dDFqn9YgRUAab3Ev45fg,30360,http://www.cornerstoneatdoraville.com/,2100 Winters Park Dr, Doraville, GA 30360,https://maps.google.com/?cid=17935014095780251216,(770) 441-1718,1.31E+11,2.70694,3920.41085,1029.26001,,
324,Cosby Spear Highrise,33.770775,-84.375096,ChIJI1qSLW0E9YgRqdRJa0rBDfQ,30332,http://www.atlantahousing.org/portfolio/index.cfm?Fuseaction=affordable_property&id=21,355 North Avenue NE, Atlanta, GA 30308,https://maps.google.com/?cid=17585924645323396265,(404) 249-1305,1.31E+11,17.82162,5824.40034,165.130997,,
147,Country Squire Atlanta Apartments,33.73674,-84.533043,ChIJSQAZ_Zoe9YgRguNzjL-Sulw,30331,http://www.countrysquirega.com/,4375 Cascade Rd, Atlanta, GA 30331,https://maps.google.com/?cid=6681814348550366082,(404) 699-1018,1.31E+11,2.32311,1588.39352,1007.47998,,
244,Courtyards At Glenview,33.745708,-84.31864,ChIJby7JPy8B9YgR22T0FIS50WM,30317, ,2035 Memorial Dr SE, Atlanta, GA 30317,https://maps.google.com/?cid=7192734056825775323,(404) 371-1006,1.31E+11,0.72837,2713.40122,784.606018,,
225,Covington Glen Apartments,33.726811,-84.179385,ChIJF8fVOHOs9YgRo_NlQrsUHNQ,30035,http://www.southwoodrealty.com/covingtonglen.htm,5816 Covington Hwy, Decatur, GA 30035,https://maps.google.com/?cid=15284114029894038435,(770) 593-4958,1.31E+11,1.40578,1880.40588,1018.640015,,
697,Creekside Apartments - Atlanta Apartments,33.893655,-84.233829,ChIJF2biYwOn9YgR-xtJt_6Zzeo,30340,http://www.creeksidega.com/,3637 Pleasantdale Rd, Atlanta, GA 30340,https://maps.google.com/?cid=16919348694376586235,(678) 937-0021,1.31E+11,3.91424,3614.41082,853.310974,,
134,Creekside Corners,33.696858,-84.171619,ChIJ1Rej8o6s9YgR7RvxImNzfsY,30038,http://hpicreeksidecorners.com/,5301 W Fairington Pkwy, Lithonia, GA 30038,https://maps.google.com/?cid=14302996336200457197,(770) 323-2265,1.31E+11,0.8265,1667.40474,1285.219971,,
133,Creekside Crossing Apartment Homes,33.696234,-84.17465,ChIJW7P-eo-s9YgRWAgS3L0rDm4,30038,http://www.creeksidecrossingapts.com/,G & E Apartment Reit Creekside, 100 Cavalier Crossing, Lithonia, USA,https://maps.google.com/?cid=7930324088287004760,(770) 808-0860,1.31E+11,1.89379,1727.40444,1287.790039,
154,Creekside Forrest,33.713516,-84.264612,ChIJYTruAXyq9YgR44JjT0ICAkU,30034, ,3000 Ember Dr, Decatur, GA 30034,https://maps.google.com/?cid=4972539422393467619,(404) 244-6114,1.31E+11,1.27011,2428.4022,902.015991,,
129,Creekside Vista,33.701357,-84.261764,ChIJ49vEyoWq9YgRGSkkj02BzgY,30034,http://www.creeksidevistaapartments.com/,3100 Lumby Dr, Decatur, GA 30034,https://maps.google.com/?cid=490471579543939353,(404) 212-9669,1.31E+11,2.48725,2344.40134,870.46698,,
194,Crestview Apartment,33.715433,-84.19119,ChIJr9j5_IWr9YgRFCiOCzIopEg,30035, ,6907 Treecrest Pkwy, Decatur, GA 30035,https://maps.google.com/?cid=5234352862318700564,(770) 987-7576,1.31E+11,1.41436,2233.40511,1096.75,,
152,Crogman School Lofts,33.72535,-84.395851,ChIJZUloBKgD9YgRuTyzsdi6lck,30315, ,1093 West Ave SW #201, Atlanta, GA 30315,https://maps.google.com/?cid=14525721613010418873,(404) 614-0808,1.31E+11,1.54779,2919.39751,632.520996,,
506,Cross Creek Condominiums,33.821099,-84.426129,ChIJETSoBToF9YgRVXsdK1M0-LQ,30327,http://www.crosscreek-atlanta.com/outside_home.asp,1221 Cross Creek Pkwy NW, Atlanta, GA 30327,https://maps.google.com/?cid=13040230252861553493,(404) 351-7600,1.31E+11,1.84108,3801.40049,1727.150024,,
111,Crystal Point Apartments,33.693446,-84.256285,ChIJp-v_dJGq9YgRm9umWDk5D7k,30034, ,Peppertree Cir, Decatur, GA 30034,https://maps.google.com/?cid=13334939940130577307,(404) 243-9095,1.31E+11,3.88911,2116.40134,863.017029,,
848,Cypress Point Apartment Homes,34.072657,-84.255824,ChIJ02Ft5jCe9YgRJ5fE48NS7Oo,30005,http://www.apartmentalpharettaga.com/,3500 North Point Pkwy, Alpharetta, GA 30005,https://maps.google.com/?cid=16927996100672263975,(770) 783-3462,1.31E+11,6.77896,2984.4177,2552.800049,,
436,Decatur Christian Towers,33.789796,-84.288395,ChIJy4_bVXIH9YgRgUhCVS2N2PM,30030,http://www.christiantowers.com/,1438 Church St, Decatur, GA 30030,https://maps.google.com/?cid=17570949172029442177,(404) 377-5507,1.31E+11,7.15812,4812.4043,554.619995,,
416,Decatur Crossing,33.780052,-84.27759,ChIJUy3mYWYH9YgRhCY91RbAGUU,30030,http://www.decaturcrossingapartments.com/,100 Grayson Pl, Decatur, GA 30030,https://maps.google.com/?cid=4979222067334162052,(404) 298-1991,1.31E+11,7.93509,4627.40465,1446.199951,,
81,Deerfield Gardens,33.699284,-84.484696,ChIJ9boAKqEd9YgR0RoLw48i-aQ,30311,http://www.deerfieldgardens.com/,2909 Campbellton Rd SW, Atlanta, GA 30311,https://maps.google.com/?cid=11887570692269087441,(404) 344-6080,1.31E+11,0.50506,2111.39363,739.226013,,
854,Deerfield Village Apartments,34.098158,-84.256204,ChIJ5Ro5bQ6e9YgRDUDIZB2WGg0,30004,http://www.liveatdeerfieldvillage.com/,13085 Morris Rd, Alpharetta, GA 30004,https://maps.google.com/?cid=944232124876603405,(770) 569-8600,1.31E+11,4.8192,3345.41816,2727,,
464,Defoors Crossing Apartments,33.812493,-84.425871,ChIJedSMsCUF9YgRKP0PSCjW6O8,30325,http://www.habershamapts.com/,2100 Defoors Ferry Rd NW, Atlanta, GA 30318,https://maps.google.com/?cid=17287302638157692200,(404) 350-9051,1.31E+11,2.96353,3110.40016,2552.189941,,
752,Delido Apartments,33.92759,-84.313933,ChIJ4b5yNH8J9YgR0RjGtq012sY,30338, ,4685 Chamblee Dunwoody Rd, Dunwoody, GA 30338,https://maps.google.com/?cid=14328824184644704465,(770) 458-2868,1.31E+11,3.11113,4874.4092,2132.540039,,
79,Delowe Village Apartments,33.690605,-84.457073,ChIJl1o0u0Ed9YgR8qe8ujXln40,30344, ,2360 Delowe Dr, East Point, GA 30344,https://maps.google.com/?cid=10205127299573786610,(404) 762-9871,1.31E+11,0.49247,1885.39437,1300.709961,,
373,Derrydown Quads & Houses,33.771882,-84.280462,ChIJex7Z0lwH9YgRIOb4yKt-6mg,30030,http://rjamesproperties.com/properties/derrydown-quads-houses/,784 Derrydown Way, Decatur, GA 30030,https://maps.google.com/?cid=7559994200771061280,(404) 377-7087,1.31E+11,1.17305,3505.4039,1547.839966,,
150,Devon Place,33.700304,-84.159458,ChIJv_KQNPSs9YgR5u6cToogCFE,30038,http://www.devonplaceapartments.com/,421 Meadowood Dr, Lithonia, GA 30038,https://maps.google.com/?cid=5838952695282331366, ,1.31E+11,0.20718,1636.40521,805.659973,,
671,Dewberry Isle,33.890543,-84.379301,ChIJoUXPFR4P9YgRudrFq3r592Q,30342, ,240 E Belle Isle Rd NE, Atlanta, GA 30342,https://maps.google.com/?cid=7275558028303522489, ,1.31E+11,2.24731,4044.40534,1459.829956,,
27,Diplomat Townhouse Apartments,33.650366,-84.478772,ChIJ8Y_NOfXi9IgRzBzvsK8736Q,30337, ,2700 Camp Creek Pkwy, College Park, GA 30337,https://maps.google.com/?cid=11880279967800433868,(404) 565-0104,1.31E+11,0.40113,2065.39154,568.684998,,
47,Dodson Courtyard Apartments,33.666798,-84.472547,ChIJVZQbfITi9IgR_PAcYDzRlXI,30344,http://rjamesproperties.com/properties/dodson-courtyard/,3250 Dodson Drive Connector, East Point, GA 30344,https://maps.google.com/?cid=8256735549094424828,(404) 767-5322,1.31E+11,0.307,2013.39272,1001.419983,,
210,Dogwood Apartments,33.750331,-84.469156,ChIJ1V3fDpAc9YgRs5o8tpFfPU0,30311, ,95 Peyton Rd SW, Atlanta, GA 30311,https://maps.google.com/?cid=5565709793932122803,(404) 696-2602,1.31E+11,2.28673,1863.39592,594.075012,,
168,Donnelly Courts,33.733574,-84.428439,ChIJjaRLQzcD9YgRD3I8_Pfxsqg,30310, ,1250 Donnelly Ave SW, Atlanta, GA 30310,https://maps.google.com/?cid=12156044391617425935,(404) 835-7247,1.31E+11,1.12543,2761.39686,562.72998,,
172,Donnelly Gardens Apartments,33.734087,-84.428478,ChIJv-RxCTcD9YgRnbU6oJ6kw6s,30310,http://rjamesproperties.com/properties/donnellygardens/,1295 Donnelly Ave SW, Atlanta, GA 30310,https://maps.google.com/?cid=12376917202144245149,(404) 755-6142,1.31E+11,1.12543,2761.39686,562.72998,,
830,Duck Pond at Johns Creek,34.043264,-84.221513,ChIJfcG7ewyf9YgRWLlGv8dgGhQ,30023,http://www.duckpondatjohnscreek.com/,10840 State Bridge Rd, Johns Creek, GA 30022,https://maps.google.com/?cid=1448576641176877400,(770) 619-9099,1.31E+11,0.39156,2090.41741,2109.159912,,
767,Dunwoody Courtyards,33.943634,-84.351882,ChIJFdbmU_gL9YgRywc3Eql5hyY,30328,http://www.dunwoodycourtyards.com/,6873 Peachtree Dunwoody Rd, Atlanta, GA 30328,https://maps.google.com/?cid=2776321462359230411,(770) 551-9502,1.31E+11,10.66291,6869.40843,1535.150024,,
792,Dunwoody Crossing,33.993915,-84.343036,ChIJA8IdZm8L9YgR60i1O8fafuM,30350,http://www.gscapts.com/apartments/sandy_springs_ga/zip_30350/gsc/4524/,700 Summit Pl Dr, Sandy Springs, GA 30350,https://maps.google.com/?cid=16392780242910267627,(888) 577-8384,1.31E+11,2.56054,2395.41105,938.481995,,
727,Dunwoody Exchange,33.916841,-84.30186,ChIJnSwPPZoJ9YgR02yI2ebrSHI,30338,http://www.dunwoodyexchange.com/,4237 N Shallowford Rd, Atlanta, GA 30341,https://maps.google.com/?cid=8235091295371554003,(770) 615-7200,1.31E+11,2.13109,5287.40936,1415.359985,,
738,Dunwoody Gables,33.923384,-84.305027,ChIJlZol74QJ9YgRWFy5Vhi9kiQ,30338,http://www.gables.com/dunwoodygables,1970 Peachford Rd, Dunwoody, GA 30338,https://maps.google.com/?cid=2635376644197014616,(770) 452-0001,1.31E+11,3.77977,4383.40942,1874.380005,,
763,Dunwoody Glen Apartments,33.930097,-84.271339,ChIJwUKrlP8J9YgRNgQ5B5LOwLg,30360,http://www.dunwoodyglen.com/,6750 Peachtree Industrial Blvd, Atlanta, GA 30360,https://maps.google.com/?cid=13312867625088910390,(678) 554-4560,1.31E+11,1.58595,3616.411,958.338013,,
784,Dunwoody Pointe,33.973235,-84.353305,ChIJd8TkYocL9YgRbxVL8rvNdvA,30350,http://www.dunwoody-pointe.com/,7901 Roswell Rd, Atlanta, GA 30350,https://maps.google.com/?cid=17327262823462147439,(770) 396-0060,1.31E+11,2.51201,3304.40961,934.825989,,
772,Dunwoody Ridge,33.953049,-84.35311,ChIJBc0y6_UL9YgRhrbAci6LqH8,30338,http://www.dunwoodyridge.com/,7227 Peachtree Dunwoody Rd, Atlanta, GA 30328,https://maps.google.com/?cid=9198755270514226822,(770) 399-6046,1.31E+11,1.38887,4448.40901,1998.959961,,
740,Dunwoody Village Apartments,33.922702,-84.296,ChIJD3xJiY0J9YgRhR_PqV5ggPY,30338,http://www.dunwoodyvillageapts.com/,2311 Dunwoody Crossing, Atlanta, GA 30338,https://maps.google.com/?cid=17762302890041352069,(770) 452-7660,1.31E+11,0.64365,3997.41013,1352.560059,,
414,Dwell @ The View,33.799476,-84.470961,ChIJfy6o9AQb9YgR-wyrj7Aexv0,30369,http://dwell-communities.com/property/dwell-view/,1620 Hollywood Rd NW, Atlanta, GA 30318,https://maps.google.com/?cid=18286337080657906939,(404) 799-0074,1.31E+11,1.48332,2115.39788,349.562012,,
415,Dwell at The View,33.799539,-84.470983,ChIJfy6o9AQb9YgRxvsVV-L6UNs,30318,https://fiftyeightplace.appfolio.com/listings/listings/4e05b4a4-90de-43e8-b88f-302a25452c64,1620 Hollywood Rd NW, Atlanta, GA 30318,https://maps.google.com/?cid=15803406942473681862,(404) 799-0074,1.31E+11,1.48332,2115.39788,349.562012,,
549,Eagle Springs Apartments,33.809923,-84.187502,ChIJVXC_g8yo9YgR8faBDJrrxxQ,30072, ,600 Eagle Springs Way, Stone Mountain, GA 30083,https://maps.google.com/?cid=1497424447991314161,(770) 879-1900,1.31E+11,0.98055,2231.40861,643.616028,,
88,Eagles Nest Apartments,33.705481,-84.48326,ChIJNUn5wqYd9YgR8Me8Q1J7SXM,30311, ,2900 Landrum Dr SW, Atlanta, GA 30311,https://maps.google.com/?cid=8307306580915570672,(404) 349-7454,1.31E+11,0.50506,2111.39363,739.226013,,
109,Eagles Run Apartments,33.698436,-84.323683,ChIJ3_jf6LoB9YgRGJ9L3O07o1A,30316, ,2000 Bouldercrest Rd, Atlanta, GA 30316,https://maps.google.com/?cid=5810553837027303192,(404) 212-8090,1.31E+11,1.48602,1962.39896,660.231995,,
231,East Lake Highrise,33.741774,-84.31446,ChIJVTxjrycB9YgRN0eCbfPhC8U,30317, ,380 E Lake Blvd SE, Atlanta, GA 30317,https://maps.google.com/?cid=14198690685846177591,(404) 370-8107,1.31E+11,0.69786,2519.4016,721.848022,,
185,East Perimeter Pointe Apartments,33.711655,-84.187954,ChIJj7qsJoer9YgR0CBB1g0txeg,30035,http://www.eastperimeterpointe.com/,4946 Snapfinger Woods Dr, Decatur, GA 30035,https://maps.google.com/?cid=16772861924663697616,(844) 333-3661,1.31E+11,1.41436,2233.40511,1096.75,,
776,Edgewater At Sandy Springs Apartments,33.964401,-84.37544,ChIJ5YknlW0M9YgRT3Oka9cmBHw,30328,http://www.edgewatersandyspringsapts.com/,7600 Roswell Rd, Atlanta, GA 30350,https://maps.google.com/?cid=8936310267275670351,(844) 843-7583,1.31E+11,1.09519,3331.40865,1496.369995,,
127,Edgewater Vista Apartments,33.700364,-84.261004,ChIJadgm7oWq9YgRABV6tBaZcyE,30034,http://www.ewvapts.com/,3110 Lumby Dr, Decatur, GA 30034,https://maps.google.com/?cid=2410438548369577216,(404) 241-3947,1.31E+11,2.48725,2344.40134,870.46698,,
280,Edgewood Court Apartments,33.755615,-84.336654,ChIJ8b1fMEsB9YgRXNXYpO0hui0,30307,http://www.edgewoodcourtapts.com/,1572 Hardee St NE, Atlanta, GA 30307,https://maps.google.com/?cid=3294983381931578716,(404) 373-5378,1.31E+11,1.69172,3932.4013,688.354004,,
381,Elan Westside Luxury Apartments,33.786112,-84.411007,ChIJCyM6FOwE9YgR3QDISY5DIRw,30377,http://www.elanwestside.com/,691 14th St NW, Atlanta, GA 30318,https://maps.google.com/?cid=2026975585695695069,(404) 481-5353,1.31E+11,5.33977,5238.39996,1070.040039,,
570,Elle of Buckhead,33.836375,-84.37977,ChIJ8ZE48o0F9YgRnbA-mlAwPKE,30355,http://www.elleofbuckhead.com/,235 Pharr Rd NE, Atlanta, GA 30305,https://maps.google.com/?cid=11618214261452353693,(877) 676-5525,1.31E+11,11.75731,9326.40298,1662.969971,,
449,Elysian at Collier,33.809377,-84.435127,ChIJnYTfvCsF9YgRMyRM9Qh-WyI,30318,http://www.elysianatcollier.com/,1391 Collier Rd NW, Atlanta, GA 30318,https://maps.google.com/?cid=2475710997110465587,(855) 835-2494,1.31E+11,4.39186,3029.39983,978.340027,,
15,Embarcadero Club Apartments,33.62314,-84.460995,ChIJaTaiAh_j9IgRoxEeIFC1WAo,30337,http://www.liveatembarcaderoclub.com/,2210 Sullivan Rd, College Park, GA 30337,https://maps.google.com/?cid=745545094070669731,(866) 591-3984,1.31E+11,3.46519,2043.39119,1086.050049,,
459,Emory Point,33.801336,-84.328238,ChIJu5CdSV8G9YgRB-0bBA7revs,30322,http://emory-point.com/,1520 Avenue Pl, Atlanta, GA 30329,https://maps.google.com/?cid=18121054496109620487,(678) 686-3106,1.31E+11,27.41433,4319.40337,550.40802,,
437,Emory Woods Apartments,33.791567,-84.304186,ChIJfehHrQUH9YgRKnL4DwGrDhU,30322,http://www.emorywoods.com,2085 Powell Ln, Decatur, GA 30033,https://maps.google.com/?cid=1517338145521693226,(404) 634-3777,1.31E+11,1.36951,4102.40385,916.315979,,
604,Encore at Clairmont Apartments,33.842567,-84.317444,ChIJtRepayoG9YgRU30mw28fKeE,30329,http://www.encoreatclairmont-apts.com/,1000 Barone Ave, Atlanta, GA 30329,https://maps.google.com/?cid=16224533697454832979,(404) 445-1462,1.31E+11,6.32788,4867.40544,965.062012,,
554,English Oaks,33.815314,-84.234652,ChIJafeYIVyo9YgRozwmlML3ZE4,30021,http://rjamesproperties.com/properties/english-oaks/,4133 Church St, Clarkston, GA 30021,https://maps.google.com/?cid=5648912247710694563,(404) 299-2234,1.31E+11,0.40386,2921.40749,650.010986,,
213,Enso Apartments,33.740861,-84.358907,ChIJLwnm-uMD9YgR2L7zirZytAM,30316,http://ensoapts.com/,880 Glenwood Ave SE, Atlanta, GA 30316,https://maps.google.com/?cid=266964406262546136,(404) 872-3676,1.31E+11,2.56629,3698.39949,1512.839966,,
529,eon at Lindbergh,33.822679,-84.371555,ChIJ85HlDMEF9YgR0Nmz-e-au2g,30324,http://www.berkshirecommunities.com/apartments/ga/atlanta/eon-at-lindbergh/,2450 Camellia Ln NE, Atlanta, GA 30324,https://maps.google.com/?cid=7546795956066572752,(404) 907-1540,1.31E+11,10.9677,7140.40271,1799.22998,,
831,Equity Residential,34.054129,-84.325337,ChIJH_Guou109YgRyFBvowRi5mc,30009,http://www.equityapartments.com/,11251 Alpharetta Hwy, Roswell, GA 30076,https://maps.google.com/?cid=7486779202611400904,(770) 442-3130,1.31E+11,7.49174,4729.41333,1768.089966,,
673,Equity Residential,33.887247,-84.3172,ChIJKXTxc_4I9YgRmwazPbGHLNw,30341,http://www.equityapartments.com/,6202 Jefferson Cir S, Atlanta, GA 30341,https://maps.google.com/?cid=15865204782633518747,(770) 837-9267,1.31E+11,3.5136,5111.40781,1500.449951,,
75,Evergreen Village Estates,33.681228,-84.372398,ChIJu2mtXxIC9YgR53UJRqgrNpY,30354, ,445 Cleveland Ave SE, Atlanta, GA 30354,https://maps.google.com/?cid=10823886756161091047,(404) 363-0444,1.31E+11,1.09435,1935.39648,522.879028,,
672,Exchange at North Haven Apartments,33.886776,-84.316725,ChIJhzYGcP4I9YgRTsn3ZGDKm08,30341,http://www.exchangeatnorthhaven.com/,2432 Johnson Ferry Rd, Atlanta, GA 30341,https://maps.google.com/?cid=5736401065746090318,(678) 554-4561,1.31E+11,3.5136,5111.40781,1500.449951,,
614,Executive Corporate Living,33.849959,-84.358332,ChIJe4dvDVQP9YgRyBXxJjF9rdM,30326,http://www.executivecorporateliving.com/Buckhead.html,3460 Kingsboro Rd NE, Atlanta, GA 30326,https://maps.google.com/?cid=15252985163033941448,(678) 208-0480,1.31E+11,30.61395,9954.40437,2913.969971,,
265,Faith Hill Apartments,33.763275,-84.45443,ChIJ8S4jLl8b9YgRPHcKP17WJuA,30314, ,2046 Joseph E. Boone Blvd NW, Atlanta, GA 30314,https://maps.google.com/?cid=16151832813883782972,(404) 799-2634,1.31E+11,0.3703,1994.39685,778.982971,,
257,Ferdows Gardens,33.757965,-84.419744,ChIJYcetp18D9YgR14ntktuLfI8,30314,http://www.liliproperties.com/,961 Desoto St NW, Atlanta, GA 30314,https://maps.google.com/?cid=10339292619714955735,(404) 665-6400,1.31E+11,1.21851,3272.39821,658.974976,,
561,Five Oaks Apartments,33.819999,-84.249528,ChIJ89lsRhWo9YgR1WXZIWMvsvo,30033,http://fiveoaksapts.com/,1200 Montreal Rd E, Tucker, GA 30084,https://maps.google.com/?cid=18064553158152644053,(770) 938-2055,1.31E+11,3.19091,3504.40741,1589.859985,,
747,Flats at Perimeter Gardens,33.92554,-84.310335,ChIJqT7egOSW9YgRUeTFg3_sLwI,30338,http://flatsatperimetergardensapts.com/,100 Azalea Garden Drive, Dunwoody, GA 30338,https://maps.google.com/?cid=157604544397042769,(678) 897-4578,1.31E+11,3.11113,4874.4092,2132.540039,,
338,Ford Factory Lofts,33.772925,-84.364151,ChIJmTtvphAE9YgRNEyufMuC8y4,30308,http://www.fordfactorylofts.com/,699 Ponce De Leon Ave NE, Atlanta, GA 30308,https://maps.google.com/?cid=3383191555567143988,(404) 874-5237,1.31E+11,5.46564,5451.40103,1930.719971,,
162,Forest At Columbia,33.714818,-84.254429,ChIJjeoI8Waq9YgR-Q4Mr3jWaiE,30034, ,2505 Columbia Dr, Decatur, GA 30034,https://maps.google.com/?cid=2407972764604174073,(404) 289-9661,1.31E+11,1.27011,2428.4022,902.015991,,
122,Forest Cove Apartments,33.708232,-84.359755,ChIJCx4QdCwC9YgRX71xvlRz6f8,30315, ,900 New Town Cir SE, Atlanta, GA 30315,https://maps.google.com/?cid=18440396957054778719,(404) 622-1074,1.31E+11,1.23771,2096.39816,125.575996,,
115,Forest Cove Apartments LLC,33.705255,-84.356363,ChIJAaM1oykC9YgR0OZsadJxR-4,30288, ,310 Thomasville Blvd SE, Atlanta, GA 30315,https://maps.google.com/?cid=17169817252899120848,(404) 622-0580,1.31E+11,1.23771,2096.39816,125.575996,,
714,Foxwood Apartments,33.904288,-84.267168,ChIJCeCYpWGn9YgREYvbYRZul0U,30340,http://www.greenleafmgmt.com/,3852 McElroy Rd, Doraville, GA 30340,https://maps.google.com/?cid=5014597752510450449,(404) 984-8377,1.31E+11,3.9762,4543.40996,973.077026,,
50,Franklin Village,33.663353,-84.405552,ChIJD1GxQXv99IgRp0nkX3i76GQ,30354, ,3244 N Fulton Ave, Hapeville, GA 30354,https://maps.google.com/?cid=7271267724068932007,(404) 768-4462,1.31E+11,2.51879,2147.39494,691.646973,,
179,Friendly Hills Apartments,33.712183,-84.204592,ChIJWX-jz56r9YgRQI_5LPpYaBQ,30035,http://www.friendlyhillsga.com/,10 Friendly Hills Dr, Decatur, GA 30035,https://maps.google.com/?cid=1470523109856087872,(770) 981-0256,1.31E+11,1.16935,2675.4042,801.927002,,
241,Friendship Tower Apartments,33.753557,-84.403193,ChIJt_1SdHwD9YgR-yBIknzDDk8,30313, ,35 Northside Dr SW, Atlanta, GA 30313,https://maps.google.com/?cid=5696705518467817723,(404) 681-2873,1.31E+11,24.36521,5001.39856,486.28299,,
350,Gables,33.780253,-84.415898,ChIJd9xbE5UE9YgRdxre_qZvSkg,30377,http://gables.com/,English Avenue, Atlanta, GA 30318,https://maps.google.com/?cid=5209098682038622839, ,1.31E+11,6.24278,3979.39918,477.281006,,
357,Gables 820 West,33.78119,-84.416149,ChIJaRv9FZUE9YgRAnHBgrNMZKo,30377,http://www.gables.com/820West,820 West Marietta St NW, Atlanta, GA 30318,https://maps.google.com/?cid=12278022817995387138,(404) 898-8720,1.31E+11,6.24278,3979.39918,477.281006,,
625,Gables Century Center,33.848295,-84.310995,ChIJl9-NQH4I9YgRwstGXSSzJF8,30345,http://www.gables.com/centurycenter,1740 Century Cir NE, Chamblee, GA 30345,https://maps.google.com/?cid=6855801501529852866,(404) 679-5888,1.31E+11,5.47077,4270.4061,1589.060059,,
463,Gables Emory Point,33.80195,-84.327805,ChIJATqOpFgG9YgRK2_eyZI1qjU,30322,http://www.gables.com/emorypoint,855 Emory Point Dr, Atlanta, GA 30329,https://maps.google.com/?cid=3866962134619287339,(404) 486-0671,1.31E+11,27.41433,4319.40337,550.40802,,
467,Gables Midtown,33.807736,-84.375296,ChIJSxVG_rUF9YgRuXBmU2Vjwb4,30324,http://www.gables.com/midtown,1925 Monroe Dr NE, Atlanta, GA 30324,https://maps.google.com/?cid=13745376824553533625,(404) 532-1925,1.31E+11,6.13258,6084.4021,1697.839966,,
442,Gables Montclair,33.792979,-84.306053,ChIJC7wmEAQH9YgROuJafMdeXsk,30322,http://www.gables.com/montclair,Ladson Ct, Decatur, GA 30033,https://maps.google.com/?cid=14510139260312150586,(404) 321-0167,1.31E+11,1.36951,4102.40385,916.315979,,
577,Gables Residential,33.837491,-84.37425,ChIJ3VHsz_IF9YgRrIk0aorNkO0,30355,http://gables.com/,475 Buckhead Ave NE, Atlanta, GA 30305,https://maps.google.com/?cid=17118408178006264236,(404) 816-7396,1.31E+11,21.74632,10104.40315,1214.459961,,
809,Gables Residential,34.02005,-84.331501,ChIJYZAGCDUL9YgRejrgxEBW_SA,30009,http://gables.com/,100 Hemingway Ln, Roswell, GA 30075,https://maps.google.com/?cid=2377151014502414970,(770) 640-1686,1.31E+11,1.63263,3458.4124,1376.130005,,
446,Gables Residential,33.794736,-84.305622,ChIJlao9vgYH9YgROgY1mJC-xPg,30307,http://gables.com/,1386 Clairmont Rd, Decatur, GA 30033,https://maps.google.com/?cid=17925661945079596602,(404) 486-0190,1.31E+11,1.36951,4102.40385,916.315979,,
429,Gables Rock Springs,33.792645,-84.340816,ChIJjecqBo8G9YgRqaw1fjh8UMU,30322,http://www.gables.com/RockSprings,550 Rock Springs Ct NE, Atlanta, GA 30306,https://maps.google.com/?cid=14218000605686115497,(404) 872-1111,1.31E+11,0.54269,4228.40261,1720.719971,,
551,Gables Sheridan,33.825548,-84.338077,ChIJ803JhhQG9YgR9zyh4BchJWY,30324,http://www.gables.com/sheridan,1514 Sheridan Rd NE, Atlanta, GA 30324,https://maps.google.com/?cid=7360325552443571447,(404) 679-5600,1.31E+11,9.18307,6129.40393,1649.530029,,
20,Garden Court,33.646204,-84.488466,ChIJ3ebLDVvi9IgRu9_lPf6w5Fc,30344,http://www.cflane.com/id/1925/garden-court-east-point--ga-30344,4060 Janice Dr, East Point, GA 30344,https://maps.google.com/?cid=6333381581996416955,(404) 762-7730,1.31E+11,0.29038,2108.39111,1282.790039,,
252,GardenView East,33.748644,-84.335958,ChIJfYqpCUkB9YgR1pStiGyF6k4,30317,http://bradenfellman.com/apartments/gardenview/,1580 Dixie St SE, Atlanta, GA 30317,https://maps.google.com/?cid=5686504180704711894,(404) 378-6412,1.31E+11,0.9269,3848.40081,988.590027,,
348,Gardenwood Apartments LLC,33.777042,-84.387038,ChIJg6E4R2YE9YgR5rOOcMZ1qrU,30308, ,817 W Peachtree St NE, Atlanta, GA 30308,https://maps.google.com/?cid=13090404762058142694,(404) 892-3405,1.31E+11,37.02319,5914.40034,2004.089966,,
465,Gateway at Cedar Brook,33.796309,-84.265325,ChIJnZZRu9Sp9YgRItEbYRwj39Q,30033,http://www.mygatewayapts.com/,3117 Cedar Brook Dr, Decatur, GA 30033,https://maps.google.com/?cid=15339017460642468130,(404) 292-1931,1.31E+11,2.87311,4922.40542,934.299988,,
195,GE Tower Loft Apartments,33.737829,-84.403841,ChIJGZzOPHMD9YgRRsD7WNa6dzc,30312,http://www.getower.com/,490 Glenn St SW, Atlanta, GA 30312,https://maps.google.com/?cid=3996868624093265990,(404) 653-0988,1.31E+11,3.25965,4317.39807,458.497986,,
766,Glenlake Apartments,33.943907,-84.36378,ChIJ7R-kJAUM9YgRusIQgCq7rFU,30328,http://www.glenlakeatl.com/,6901 Glenlake Pkwy NE, Atlanta, GA 30328,https://maps.google.com/?cid=6173514980429710010,(770) 392-0826,1.31E+11,6.73325,5006.40782,911.866028,,
223,Glenwood East,33.743757,-84.354086,ChIJVWmQd1gB9YgRQk7EYwrrlAo,30317,http://www.glenwoodeast.com/,390 Stovall St SE, Atlanta, GA 30316,https://maps.google.com/?cid=762492666788466242,(404) 381-1081,1.31E+11,2.4967,3538.39987,1922.819946,,
824,Grande Oaks Apartments,34.038452,-84.335968,ChIJBWjd_rh09YgRxEnrNghGEMk,30009,http://www.bellapartmentliving.com/GA/Atlanta/Grande-Oaks,100 Legacy Oaks Cir, Roswell, GA 30076,https://maps.google.com/?cid=14488157002345957828,(770) 587-1008,1.31E+11,7.49174,4729.41333,1768.089966,,
628,Green Park Apartments,33.843747,-84.250713,ChIJuVsxfOCn9YgR9Siaz2yd2u8,30084,http://greenparkapts.com/,2037 Weems Rd, Tucker, GA 30084,https://maps.google.com/?cid=17283299610652715253,(770) 724-5006,1.31E+11,7.44883,4494.40728,1093.98999,,
16,Green Springs Apartments,33.626298,-84.475789,ChIJKTc_mwHj9IgRA0jhgiU6mpE,30337, ,2615 Roosevelt Hwy, Atlanta, GA 30337,https://maps.google.com/?cid=10491762214696994819,(404) 766-0343,1.31E+11,0.47886,1869.39101,1210.079956,,
139,Greens At Cascade,33.735084,-84.531535,ChIJ-3vZApse9YgR-2x7VO8Gtf0,30331,http://www.fifecoproperties.com/Apartments/module/property_info/property%5Bid%5D/8112/,4355 Cascade Rd, Atlanta, GA 30331,https://maps.google.com/?cid=18281525887364721915,(404) 505-0215,1.31E+11,2.32311,1588.39352,1007.47998,,
192,Grovewood Park Apartments,33.707796,-84.138599,ChIJu2ULG6yt9YgREMZml7a4IFo,30058, ,6170 Hillandale Dr, Lithonia, GA 30058,https://maps.google.com/?cid=6494393757031908880,(770) 808-4431,1.31E+11,0.16023,1821.40635,1248.829956,,
538,Hairston Lake Apartments,33.807817,-84.191597,ChIJj7hafc6o9YgR-WSfSXI8eiE,30072,http://www.dekalbhousing.org/properties/hairston-lake,1023 N Hairston Rd, Stone Mountain, GA 30083,https://maps.google.com/?cid=2412307011969443065,(404) 296-4116,1.31E+11,0.98055,2231.40861,643.616028,,
528,Hampton Hall Apartments,33.818406,-84.333982,ChIJIZQLKGoG9YgRKbEH2xAbUu0,30329,http://www.kencoapartments.com/,2217 Briarcliff Rd NE, Atlanta, GA 30329,https://maps.google.com/?cid=17100760494287335721,(404) 634-7780,1.31E+11,2.47956,5290.40409,926.336975,,
794,Hannover Grand at Sandy Springs Apartments,33.998817,-84.353106,ChIJm7vwSmAL9YgRFv7nrQyjG-g,30350,http://www.hannovergrandapartments.com/,1500 Huntcliff Village Ct, Sandy Springs, GA 30350,https://maps.google.com/?cid=16725140916023066134,(855) 425-8432,1.31E+11,1.64262,2376.41036,1368.699951,,
782,Harbor Pointe,33.972851,-84.370096,ChIJobToEGYM9YgROU5Lu-5ulKQ,30328,http://www.gscapts.com/apartments/sandy_springs_ga/zip_30350/gsc/4521/,500 Harbor Pointe Pkwy, Sandy Springs, GA 30350,https://maps.google.com/?cid=11859225690396905017,(888) 845-4079,1.31E+11,1.47362,3191.40909,1451.670044,,
43,Harmony Apartment Homes,33.665286,-84.467635,ChIJf0HuBZvi9IgRuSlscODVgy4,30344,http://www.harmonyproperties.com/,2420 Heaton Dr, East Point, GA 30344,https://maps.google.com/?cid=3351757707629308345,(404) 763-3576,1.31E+11,0.32328,1938.3929,1018.640015,,
55,Harmony Park,33.692434,-84.624826,ChIJmW1wWxIg9YgRaBlhPy8AyUk,30331,http://rjamesproperties.com/properties/harmonypark/,7250 Campbellton Rd SW, Atlanta, GA 30331,https://maps.google.com/?cid=5316781038014372200,(404) 349-6455,1.31E+11,0.02138,704.38639,1634.22998,,
95,Harmony Plaza 1 Apartments,33.703874,-84.45325,ChIJ1a3rvTsd9YgRBoN-LCWKoZs,30311,http://rjamesproperties.com/properties/plaza1/,1871 Plaza Ln SW, Atlanta, GA 30311,https://maps.google.com/?cid=11214396439394157318,(404) 755-6445,1.31E+11,0.74096,1860.39472,441.071014,,
182,Harvard Place Apartments,33.705753,-84.135514,ChIJW4RVHamt9YgRq1BuNrvve74,30038,http://www.harvardplaceatlapts.com/,6256 Hillandale Dr, Lithonia, GA 30058,https://maps.google.com/?cid=13725827876692840619,(855) 980-6013,1.31E+11,0.16023,1821.40635,1248.829956,,
845,Haven at Avalon,34.071565,-84.27873,ChIJC6O7koR19YgRiemIX9HRIUg,30009,http://www.havenatavalon.com/,1213 Avalon Blvd, Alpharetta, GA 30009,https://maps.google.com/?cid=5197666142143441289,(770) 285-8585,1.31E+11,3.4873,3465.41681,2358.340088,,
507,Haverly At Stone Mountain,33.798818,-84.203457,ChIJ2RkUA9yo9YgR3lcIIswDQdo,30072,http://thehaverly.com/,2700 Summit Creek Dr, Stone Mountain, GA 30083,https://maps.google.com/?cid=15726855549033666526,(404) 292-1800,1.31E+11,1.86938,2541.40766,1259.699951,,
645,Hawthorne at Clairmont,33.856534,-84.292692,ChIJXboupG0I9YgRNckxl9EpQyA,30345,http://www.hawthorneatclairmont.com/,2345 Peachwood Cir NE, Atlanta, GA 30345,https://maps.google.com/?cid=2324747812814833973,(404) 235-5900,1.31E+11,1.89905,3694.40688,1217.589966,,
771,Hawthorne Gates,33.951794,-84.355799,ChIJmQiIigkM9YgRzCnoX3duOL4,30328,http://www.hawthornegates.com/,7200 Peachtree Dunwoody Rd, Atlanta, GA 30328,https://maps.google.com/?cid=13706826924891318732,(770) 394-9555,1.31E+11,1.38887,4448.40901,1998.959961,,
677,Hearthside Brookleigh,33.890898,-84.319872,ChIJ_____68J9YgRBU36pPAXCLA,30319,http://www.hearthsidebrookleigh.com/,2282 Johnson Ferry Rd NE, Atlanta, GA 30319,https://maps.google.com/?cid=12684414672816459013,(770) 452-7676,1.31E+11,1.38783,4863.40758,1731.569946,,
745,Heights Perimeter Center,33.927106,-84.331612,ChIJx6S6BWcJ9YgRqSl8cKNcGzs,30328,http://www.heightsperimetercenter.com/,100 Perimeter Trace, Dunwoody, GA 30346,https://maps.google.com/?cid=4259099729645545897,(770) 399-9920,1.31E+11,14.88655,7970.40871,2391.149902,,
274,Henderson Place,33.757889,-84.370495,ChIJbVv0CQoE9YgRL3YaVYx85ds,30312,http://hendersonpl.vsites.com/home,520 Irwin St NE, Atlanta, GA 30312,https://maps.google.com/?cid=15845207806138021423,(404) 589-1374,1.31E+11,7.47403,5384.40013,2224.669922,,
239,Heritage Commons,33.753894,-84.412995,ChIJj5Q_Q2ED9YgRm3Sfj30Deh0,30314,http://www.heritagecommonscau.com/,15 James P Brawley Dr SW, Atlanta, GA 30314,https://maps.google.com/?cid=2124014012073997467,(404) 688-4573,1.31E+11,7.13518,4005.39817,609.435974,,
66,Heritage Greene,33.676565,-84.41675,ChIJC6d5rpgC9YgRK9K-LSENKZo,30354, ,2891 Springdale Rd SW, Atlanta, GA 30315,https://maps.google.com/?cid=11108424392038601259,(404) 768-1158,1.31E+11,3.76311,1977.39515,340.821014,,
171,Heritage Reserve Apartments,33.709868,-84.190933,ChIJsW-etYar9YgR3JQEEeoA1S4,30035,http://www.heritagereserveapts.com/,10 Creste Dr, Decatur, GA 30035,https://maps.google.com/?cid=3374604501091914972,(770) 593-0492,1.31E+11,2.23997,2232.40457,1653.420044,,
184,Heritage Station Apartments,33.733552,-84.402763,ChIJGVmUfgwD9YgRXJwlxl8RtDU,30310,http://www.heritagestationatlanta.com/,765 McDaniel St SW, Atlanta, GA 30310,https://maps.google.com/?cid=3869737082862017628,(404) 588-5522,1.31E+11,1.48262,3539.39775,511.906006,,
13,Hickory Park Apartments,33.621472,-84.512983,ChIJW7EwNtDj9IgR0n1bxAKvAlQ,30349,http://www.hickoryparkapts.com/DisplayFloorPlan.html,4900 Delano Rd, Atlanta, GA 30349,https://maps.google.com/?cid=6053593275558493650,(404) 761-8033,1.31E+11,0.76815,1332.38946,1240.72998,,
680,Hidden Colony Apartments,33.888362,-84.269133,ChIJDRjb4X-n9YgR4S1ZFfDIiCE,30340,http://www.hiddencolony.com/,3373 Aztec Rd, Doraville, GA 30340,https://maps.google.com/?cid=2416402133560143329,(770) 458-8221,1.31E+11,3.76199,4455.40913,1678.410034,,
82,Hidden Cove,33.696133,-84.45015,ChIJG1ICsTkd9YgR6L8U6xpDsJA,30344,http://www.cflane.com/id/1926/hidden-cove-east-point--ga-30344,1900 Stanton Delowe Con, Atlanta, GA 30344,https://maps.google.com/?cid=10425906920254914536,(404) 765-0824,1.31E+11,0.49247,1885.39437,1300.709961,,
45,Hidden Crest Apartments,33.668534,-84.494481,ChIJh8rlNHHi9IgRvH0ywfmoZTo,30331,http://www.hiddencreste.com/,3200 Stone Rd SW, Atlanta, GA 30331,https://maps.google.com/?cid=4207955217489231292,(404) 349-4220,1.31E+11,0.66421,2789.39202,877.30603,,
176,Hidden Hollow Apartments,33.742877,-84.510717,ChIJs_T94Twc9YgRRC64vK-x9NE,30331, ,415 Fairburn Rd SW, Atlanta, GA 30331,https://maps.google.com/?cid=15128912416587918916,(404) 691-5868,1.31E+11,0.80065,1663.39409,844.455994,,
2,Hidden Lake Apartments,33.569089,-84.517629,ChIJCxwWUxnk9IgROOnstCphrzk,30291,http://www.southwoodrealty.com/hiddenlake.htm,4050 Morgan Rd, Union City, GA 30291,https://maps.google.com/?cid=4156647817138202936,(770) 964-0717,1.31E+11,0.89058,2255.3868,1179.089966,,
59,Hidden Oaks Apartments,33.674257,-84.415302,ChIJcXSknJ8C9YgR4Ef_DMejZ60,30354,http://www.jamcoproperties.com/property.jsp?catid=15,2950 Springdale Rd, Atlanta, GA 30315,https://maps.google.com/?cid=12495135766474606560, ,1.31E+11,3.76311,1977.39515,340.821014,,
97,Hidden Village Apartments,33.708035,-84.487465,ChIJBRQCZq8d9YgRGmPBKsRD4-M,30311,http://www.hiddenvillageatlanta.com/,3041 Landrum Dr SW, Atlanta, GA 30311,https://maps.google.com/?cid=16421043176132928282,(404) 349-9440,1.31E+11,0.15444,1799.39403,733.786987,,
235,Hidden Woods,33.734021,-84.226792,ChIJeaBOX8ur9YgRt063AJRafvQ,30035, ,4655 Glenwood Rd, Decatur, GA 30035,https://maps.google.com/?cid=17617618384033631927,(678) 927-9487,1.31E+11,0.60601,2155.40387,1092.699951,,
700,Highland Circle,33.909469,-84.380875,ChIJ3-0bDOwO9YgRH2a8w4anY3o,30342,http://sabrapropertymgt.com/?community=highland-circle,201 Northwood Dr, Atlanta, GA 30342,https://maps.google.com/?cid=8819076692572923423,(404) 252-5411,1.31E+11,5.76243,4537.4059,963.28302,,
146,Highland Club,33.711902,-84.291653,ChIJxejRMPQA9YgRA73Qq7psSf0,30034, ,2567 Whites Mill Rd, Decatur, GA 30034,https://maps.google.com/?cid=18251238513897946371,(404) 212-9723,1.31E+11,1.06904,2321.40098,891.346008,,
542,Highland Forest,33.809717,-84.198031,ChIJicQCx8Wo9YgRwjdqkFQosow,30072, ,4719 Central Dr, Stone Mountain, GA 30083,https://maps.google.com/?cid=10138210054829651906, ,1.31E+11,1.2926,2465.40837,927.908997,,
312,Highland Glen,33.765864,-84.354377,ChIJZ9ACgwIE9YgR7wQ2sU-xGjM,30307, ,436 North Highland Avenue Northeast, Atlanta, GA 30307,https://maps.google.com/?cid=3682450601162441967, ,1.31E+11,4.03052,5458.40089,1906.23999,,
151,Highland Greens Apartments,33.700546,-84.160405,ChIJiVocNfSs9YgRukeg2tVdFXw,30038, ,421 Meadowood Dr, Lithonia, GA 30038,https://maps.google.com/?cid=8941155808291342266,(770) 981-5452,1.31E+11,0.20718,1636.40521,805.659973,,
474,Highland Lake Apartments,33.802145,-84.309283,ChIJV5SX-aoH9YgRS3Dh9N7VMr4,30322,http://www.highlandlake-apts.com/,10 Highland Lake Cir, Decatur, GA 30033,https://maps.google.com/?cid=13705251769609711691,(404) 467-2104,1.31E+11,5.8101,4305.40424,1151.280029,,
788,Highland Park Apartments,33.985181,-84.342998,ChIJeX4xrHAL9YgRKXh8p0XjNWM,30350,http://www.livehighlandpark.com/,100 Highland Park Trail, Sandy Springs, GA 30350,https://maps.google.com/?cid=7148869871822731305,(770) 594-7118,1.31E+11,5.3745,2390.41061,1546.060059,,
